[{"poiId":"B0FFG0DYET","poiLocation":"120.102905,43.874273","poiLng":"120.102905","poiLat":"43.874273","poiName":"和顺嘉城","poiType":"商务住宅;住宅区;住宅小区","poiAddress":"南新巷与欧木伦路交叉口西南100米","poiBounds":"null","poiPcode":"150000","poiPname":"内蒙古自治区","poiCitycode":"0476","poiCityname":"赤峰市","poiAdcode":"150421","poiAdname":"阿鲁科尔沁旗","poiRegion":"内蒙古自治区/赤峰市/阿鲁科尔沁旗"},{"poiId":"B0FFID654U","poiLocation":"120.075079,43.878787","poiLng":"120.075079","poiLat":"43.878787","poiName":"玉龙家园","poiType":"商务住宅;住宅区;住宅小区","poiAddress":"玉龙家园(汉林西街北300米)","poiBounds":"null","poiPcode":"150000","poiPname":"内蒙古自治区","poiCitycode":"0476","poiCityname":"赤峰市","poiAdcode":"150421","poiAdname":"阿鲁科尔沁旗","poiRegion":"内蒙古自治区/赤峰市/阿鲁科尔沁旗"},{"poiId":"B01DC0JFNW","poiLocation":"120.095943,43.886841","poiLng":"120.095943","poiLat":"43.886841","poiName":"阿旗粮食小区","poiType":"商务住宅;住宅区;住宅小区","poiAddress":"敖木伦街西靠山巷","poiBounds":"null","poiPcode":"150000","poiPname":"内蒙古自治区","poiCitycode":"0476","poiCityname":"赤峰市","poiAdcode":"150421","poiAdname":"阿鲁科尔沁旗","poiRegion":"内蒙古自治区/赤峰市/阿鲁科尔沁旗"},{"poiId":"B0FFHYFJG5","poiLocation":"120.056678,43.875701","poiLng":"120.056678","poiLat":"43.875701","poiName":"惠民家园","poiType":"商务住宅;住宅区;住宅小区","poiAddress":"学苑路16","poiBounds":"null","poiPcode":"150000","poiPname":"内蒙古自治区","poiCitycode":"0476","poiCityname":"赤峰市","poiAdcode":"150421","poiAdname":"阿鲁科尔沁旗","poiRegion":"内蒙古自治区/赤峰市/阿鲁科尔沁旗"},{"poiId":"B0FFH1B5OF","poiLocation":"120.099960,43.882381","poiLng":"120.099960","poiLat":"43.882381","poiName":"玛拉泌艾里","poiType":"商务住宅;住宅区;住宅小区","poiAddress":"前进街与和平巷交叉口东150米","poiBounds":"null","poiPcode":"150000","poiPname":"内蒙古自治区","poiCitycode":"0476","poiCityname":"赤峰市","poiAdcode":"150421","poiAdname":"阿鲁科尔沁旗","poiRegion":"内蒙古自治区/赤峰市/阿鲁科尔沁旗"},{"poiId":"B01DC0JEU0","poiLocation":"120.063462,43.873667","poiLng":"120.063462","poiLat":"43.873667","poiName":"园丁小区(罕乌拉西路)","poiType":"商务住宅;住宅区;住宅小区","poiAddress":"汉林西街与罕乌拉西路交叉口西南100米","poiBounds":"null","poiPcode":"150000","poiPname":"内蒙古自治区","poiCitycode":"0476","poiCityname":"赤峰市","poiAdcode":"150421","poiAdname":"阿鲁科尔沁旗","poiRegion":"内蒙古自治区/赤峰市/阿鲁科尔沁旗"},{"poiId":"B01DC0JEU1","poiLocation":"120.06467,43.873771","poiLng":"120.06467","poiLat":"43.873771","poiName":"林业家园","poiType":"商务住宅;住宅区;住宅小区","poiAddress":"天山镇新区","poiBounds":"null","poiPcode":"150000","poiPname":"内蒙古自治区","poiCitycode":"0476","poiCityname":"赤峰市","poiAdcode":"150421","poiAdname":"阿鲁科尔沁旗","poiRegion":"内蒙古自治区/赤峰市/阿鲁科尔沁旗"},{"poiId":"B01DC0J704","poiLocation":"120.097503,43.882963","poiLng":"120.097503","poiLat":"43.882963","poiName":"房建家园","poiType":"商务住宅;住宅区;住宅小区","poiAddress":"天山镇东市场","poiBounds":"null","poiPcode":"150000","poiPname":"内蒙古自治区","poiCitycode":"0476","poiCityname":"赤峰市","poiAdcode":"150421","poiAdname":"阿鲁科尔沁旗","poiRegion":"内蒙古自治区/赤峰市/阿鲁科尔沁旗"},{"poiId":"B01DC0J12J","poiLocation":"120.067995,43.87373","poiLng":"120.067995","poiLat":"43.87373","poiName":"环保家园","poiType":"商务住宅;住宅区;住宅小区","poiAddress":"五道街","poiBounds":"null","poiPcode":"150000","poiPname":"内蒙古自治区","poiCitycode":"0476","poiCityname":"赤峰市","poiAdcode":"150421","poiAdname":"阿鲁科尔沁旗","poiRegion":"内蒙古自治区/赤峰市/阿鲁科尔沁旗"},{"poiId":"B01DC15G96","poiLocation":"120.090309,43.877057","poiLng":"120.090309","poiLat":"43.877057","poiName":"旺业小区","poiType":"商务住宅;住宅区;住宅小区","poiAddress":"天山镇汉林路","poiBounds":"null","poiPcode":"150000","poiPname":"内蒙古自治区","poiCitycode":"0476","poiCityname":"赤峰市","poiAdcode":"150421","poiAdname":"阿鲁科尔沁旗","poiRegion":"内蒙古自治区/赤峰市/阿鲁科尔沁旗"},{"poiId":"B01DC0JCAL","poiLocation":"120.067219,43.875387","poiLng":"120.067219","poiLat":"43.875387","poiName":"国土家园(汉林西街)","poiType":"商务住宅;住宅区;住宅小区","poiAddress":"天山镇新区","poiBounds":"null","poiPcode":"150000","poiPname":"内蒙古自治区","poiCitycode":"0476","poiCityname":"赤峰市","poiAdcode":"150421","poiAdname":"阿鲁科尔沁旗","poiRegion":"内蒙古自治区/赤峰市/阿鲁科尔沁旗"},{"poiId":"B01DC0JCBG","poiLocation":"120.099838,43.879436","poiLng":"120.099838","poiLat":"43.879436","poiName":"兴银家园","poiType":"商务住宅;住宅区;住宅小区","poiAddress":"天山镇","poiBounds":"null","poiPcode":"150000","poiPname":"内蒙古自治区","poiCitycode":"0476","poiCityname":"赤峰市","poiAdcode":"150421","poiAdname":"阿鲁科尔沁旗","poiRegion":"内蒙古自治区/赤峰市/阿鲁科尔沁旗"},{"poiId":"B01DC0I5IX","poiLocation":"120.067926,43.873008","poiLng":"120.067926","poiLat":"43.873008","poiName":"地税家园(罕乌拉东路)","poiType":"商务住宅;住宅区;住宅小区","poiAddress":"汉林西街与罕乌拉东路交叉口东南200米","poiBounds":"null","poiPcode":"150000","poiPname":"内蒙古自治区","poiCitycode":"0476","poiCityname":"赤峰市","poiAdcode":"150421","poiAdname":"阿鲁科尔沁旗","poiRegion":"内蒙古自治区/赤峰市/阿鲁科尔沁旗"},{"poiId":"B0FFFYXJ0M","poiLocation":"120.077307,43.871724","poiLng":"120.077307","poiLat":"43.871724","poiName":"妇女之家天山办事处盛世社区","poiType":"商务住宅;住宅区;住宅小区","poiAddress":"天元大街北100米","poiBounds":"null","poiPcode":"150000","poiPname":"内蒙古自治区","poiCitycode":"0476","poiCityname":"赤峰市","poiAdcode":"150421","poiAdname":"阿鲁科尔沁旗","poiRegion":"内蒙古自治区/赤峰市/阿鲁科尔沁旗"},{"poiId":"B0FFG9F0M6","poiLocation":"120.087838,43.87416","poiLng":"120.087838","poiLat":"43.87416","poiName":"鑫和园小区","poiType":"商务住宅;住宅区;住宅小区","poiAddress":"南新巷与西市路交叉口西50米","poiBounds":"null","poiPcode":"150000","poiPname":"内蒙古自治区","poiCitycode":"0476","poiCityname":"赤峰市","poiAdcode":"150421","poiAdname":"阿鲁科尔沁旗","poiRegion":"内蒙古自治区/赤峰市/阿鲁科尔沁旗"},{"poiId":"B0FFGI9HXH","poiLocation":"120.097507,43.887022","poiLng":"120.097507","poiLat":"43.887022","poiName":"天硕家园","poiType":"商务住宅;住宅区;住宅小区","poiAddress":"前进街与查布杆路交叉口东北100米","poiBounds":"null","poiPcode":"150000","poiPname":"内蒙古自治区","poiCitycode":"0476","poiCityname":"赤峰市","poiAdcode":"150421","poiAdname":"阿鲁科尔沁旗","poiRegion":"内蒙古自治区/赤峰市/阿鲁科尔沁旗"},{"poiId":"B0FFG1DQNH","poiLocation":"120.048744,43.886117","poiLng":"120.048744","poiLat":"43.886117","poiName":"瑞隆家园","poiType":"商务住宅;住宅区;住宅小区","poiAddress":"巴天线与303国道交叉口西南100米","poiBounds":"null","poiPcode":"150000","poiPname":"内蒙古自治区","poiCitycode":"0476","poiCityname":"赤峰市","poiAdcode":"150421","poiAdname":"阿鲁科尔沁旗","poiRegion":"内蒙古自治区/赤峰市/阿鲁科尔沁旗"},{"poiId":"B0FFG0L1BA","poiLocation":"120.053749,43.869655","poiLng":"120.053749","poiLat":"43.869655","poiName":"赛罕家园","poiType":"商务住宅;住宅区;住宅小区","poiAddress":"天元大街南100米","poiBounds":"null","poiPcode":"150000","poiPname":"内蒙古自治区","poiCitycode":"0476","poiCityname":"赤峰市","poiAdcode":"150421","poiAdname":"阿鲁科尔沁旗","poiRegion":"内蒙古自治区/赤峰市/阿鲁科尔沁旗"},{"poiId":"B0FFG1DTLB","poiLocation":"120.058197,43.866744","poiLng":"120.058197","poiLat":"43.866744","poiName":"峰景新城A区","poiType":"商务住宅;住宅区;住宅小区","poiAddress":"天山镇新区","poiBounds":"null","poiPcode":"150000","poiPname":"内蒙古自治区","poiCitycode":"0476","poiCityname":"赤峰市","poiAdcode":"150421","poiAdname":"阿鲁科尔沁旗","poiRegion":"内蒙古自治区/赤峰市/阿鲁科尔沁旗"},{"poiId":"B0FFG0Q3MY","poiLocation":"119.826450,43.670337","poiLng":"119.826450","poiLat":"43.670337","poiName":"双胜家园","poiType":"商务住宅;住宅区;住宅小区","poiAddress":"阿旗双胜镇","poiBounds":"null","poiPcode":"150000","poiPname":"内蒙古自治区","poiCitycode":"0476","poiCityname":"赤峰市","poiAdcode":"150421","poiAdname":"阿鲁科尔沁旗","poiRegion":"内蒙古自治区/赤峰市/阿鲁科尔沁旗"},{"poiId":"B0FFG0T8IX","poiLocation":"120.067731,43.865257","poiLng":"120.067731","poiLat":"43.865257","poiName":"牧原小区","poiType":"商务住宅;住宅区;住宅小区","poiAddress":"鲁宝线南50米","poiBounds":"null","poiPcode":"150000","poiPname":"内蒙古自治区","poiCitycode":"0476","poiCityname":"赤峰市","poiAdcode":"150421","poiAdname":"阿鲁科尔沁旗","poiRegion":"内蒙古自治区/赤峰市/阿鲁科尔沁旗"},{"poiId":"B0FFG0PNXQ","poiLocation":"120.070445,43.872682","poiLng":"120.070445","poiLat":"43.872682","poiName":"水务家园","poiType":"商务住宅;住宅区;住宅小区","poiAddress":"集通路","poiBounds":"null","poiPcode":"150000","poiPname":"内蒙古自治区","poiCitycode":"0476","poiCityname":"赤峰市","poiAdcode":"150421","poiAdname":"阿鲁科尔沁旗","poiRegion":"内蒙古自治区/赤峰市/阿鲁科尔沁旗"},{"poiId":"B0FFG0PLDE","poiLocation":"120.099823,43.880588","poiLng":"120.099823","poiLat":"43.880588","poiName":"东市家园","poiType":"商务住宅;住宅区;住宅小区","poiAddress":"前进街与和平路交叉口东100米","poiBounds":"null","poiPcode":"150000","poiPname":"内蒙古自治区","poiCitycode":"0476","poiCityname":"赤峰市","poiAdcode":"150421","poiAdname":"阿鲁科尔沁旗","poiRegion":"内蒙古自治区/赤峰市/阿鲁科尔沁旗"},{"poiId":"B0FFG0NR7D","poiLocation":"120.091650,43.875412","poiLng":"120.091650","poiLat":"43.875412","poiName":"东暖热力小区","poiType":"商务住宅;住宅区;住宅小区","poiAddress":"红星路与胜利路交叉口西100米","poiBounds":"null","poiPcode":"150000","poiPname":"内蒙古自治区","poiCitycode":"0476","poiCityname":"赤峰市","poiAdcode":"150421","poiAdname":"阿鲁科尔沁旗","poiRegion":"内蒙古自治区/赤峰市/阿鲁科尔沁旗"},{"poiId":"B0FFG0F8HK","poiLocation":"120.073585,43.873216","poiLng":"120.073585","poiLat":"43.873216","poiName":"同心家园","poiType":"商务住宅;住宅区;住宅小区","poiAddress":"天元大街北200米","poiBounds":"null","poiPcode":"150000","poiPname":"内蒙古自治区","poiCitycode":"0476","poiCityname":"赤峰市","poiAdcode":"150421","poiAdname":"阿鲁科尔沁旗","poiRegion":"内蒙古自治区/赤峰市/阿鲁科尔沁旗"},{"poiId":"B0FFFX8N2C","poiLocation":"120.049726,43.868564","poiLng":"120.049726","poiLat":"43.868564","poiName":"天骄府","poiType":"商务住宅;住宅区;住宅小区","poiAddress":"天元大街","poiBounds":"null","poiPcode":"150000","poiPname":"内蒙古自治区","poiCitycode":"0476","poiCityname":"赤峰市","poiAdcode":"150421","poiAdname":"阿鲁科尔沁旗","poiRegion":"内蒙古自治区/赤峰市/阿鲁科尔沁旗"},{"poiId":"B01DC0JDZQ","poiLocation":"120.058349,43.87276","poiLng":"120.058349","poiLat":"43.87276","poiName":"百合新城","poiType":"商务住宅;住宅区;住宅小区","poiAddress":"阿旗天山镇新区","poiBounds":"null","poiPcode":"150000","poiPname":"内蒙古自治区","poiCitycode":"0476","poiCityname":"赤峰市","poiAdcode":"150421","poiAdname":"阿鲁科尔沁旗","poiRegion":"内蒙古自治区/赤峰市/阿鲁科尔沁旗"},{"poiId":"B01DC0I5EY","poiLocation":"120.087009,43.88099","poiLng":"120.087009","poiLat":"43.88099","poiName":"佳园小区(西市路)","poiType":"商务住宅;住宅区;住宅小区","poiAddress":"西市街","poiBounds":"null","poiPcode":"150000","poiPname":"内蒙古自治区","poiCitycode":"0476","poiCityname":"赤峰市","poiAdcode":"150421","poiAdname":"阿鲁科尔沁旗","poiRegion":"内蒙古自治区/赤峰市/阿鲁科尔沁旗"},{"poiId":"B01DC0JD4W","poiLocation":"120.073059,43.872315","poiLng":"120.073059","poiLat":"43.872315","poiName":"鑫园(天元大街)","poiType":"商务住宅;住宅区;住宅小区","poiAddress":"碧海王朝音乐广场二部西北","poiBounds":"null","poiPcode":"150000","poiPname":"内蒙古自治区","poiCitycode":"0476","poiCityname":"赤峰市","poiAdcode":"150421","poiAdname":"阿鲁科尔沁旗","poiRegion":"内蒙古自治区/赤峰市/阿鲁科尔沁旗"},{"poiId":"B01DC15X2Q","poiLocation":"120.092473,43.882831","poiLng":"120.092473","poiLat":"43.882831","poiName":"幸福家园","poiType":"商务住宅;住宅区;住宅小区","poiAddress":"和平巷与红星路交叉口北150米","poiBounds":"null","poiPcode":"150000","poiPname":"内蒙古自治区","poiCitycode":"0476","poiCityname":"赤峰市","poiAdcode":"150421","poiAdname":"阿鲁科尔沁旗","poiRegion":"内蒙古自治区/赤峰市/阿鲁科尔沁旗"},{"poiId":"B01DC0I6JJ","poiLocation":"120.087246,43.875653","poiLng":"120.087246","poiLat":"43.875653","poiName":"和平小区(胜利巷)","poiType":"商务住宅;住宅区;住宅小区","poiAddress":"西市街","poiBounds":"null","poiPcode":"150000","poiPname":"内蒙古自治区","poiCitycode":"0476","poiCityname":"赤峰市","poiAdcode":"150421","poiAdname":"阿鲁科尔沁旗","poiRegion":"内蒙古自治区/赤峰市/阿鲁科尔沁旗"},{"poiId":"B01DC0JGKD","poiLocation":"120.062604,43.868733","poiLng":"120.062604","poiLat":"43.868733","poiName":"四季花城","poiType":"商务住宅;住宅区;住宅小区","poiAddress":"罕乌拉西路西150米","poiBounds":"null","poiPcode":"150000","poiPname":"内蒙古自治区","poiCitycode":"0476","poiCityname":"赤峰市","poiAdcode":"150421","poiAdname":"阿鲁科尔沁旗","poiRegion":"内蒙古自治区/赤峰市/阿鲁科尔沁旗"},{"poiId":"B01DC0JBFR","poiLocation":"120.090587,43.875819","poiLng":"120.090587","poiLat":"43.875819","poiName":"向阳小区(胜利路)","poiType":"商务住宅;住宅区;住宅小区","poiAddress":"红星路与胜利巷交叉口西南200米","poiBounds":"null","poiPcode":"150000","poiPname":"内蒙古自治区","poiCitycode":"0476","poiCityname":"赤峰市","poiAdcode":"150421","poiAdname":"阿鲁科尔沁旗","poiRegion":"内蒙古自治区/赤峰市/阿鲁科尔沁旗"},{"poiId":"B01DC0JK44","poiLocation":"120.091581,43.876818","poiLng":"120.091581","poiLat":"43.876818","poiName":"祥和家园(红星路)","poiType":"商务住宅;住宅区;住宅小区","poiAddress":"钢铁西街","poiBounds":"null","poiPcode":"150000","poiPname":"内蒙古自治区","poiCitycode":"0476","poiCityname":"赤峰市","poiAdcode":"150421","poiAdname":"阿鲁科尔沁旗","poiRegion":"内蒙古自治区/赤峰市/阿鲁科尔沁旗"},{"poiId":"B01DC0J06F","poiLocation":"120.093286,43.878529","poiLng":"120.093286","poiLat":"43.878529","poiName":"钟楼家园","poiType":"商务住宅;住宅区;住宅小区","poiAddress":"汉林路","poiBounds":"null","poiPcode":"150000","poiPname":"内蒙古自治区","poiCitycode":"0476","poiCityname":"赤峰市","poiAdcode":"150421","poiAdname":"阿鲁科尔沁旗","poiRegion":"内蒙古自治区/赤峰市/阿鲁科尔沁旗"},{"poiId":"B01DC0JGJS","poiLocation":"120.093328,43.876034","poiLng":"120.093328","poiLat":"43.876034","poiName":"惠安小区(红星路)","poiType":"商务住宅;住宅区;住宅小区","poiAddress":"红星街","poiBounds":"null","poiPcode":"150000","poiPname":"内蒙古自治区","poiCitycode":"0476","poiCityname":"赤峰市","poiAdcode":"150421","poiAdname":"阿鲁科尔沁旗","poiRegion":"内蒙古自治区/赤峰市/阿鲁科尔沁旗"},{"poiId":"B01DC0I565","poiLocation":"120.073897,43.869316","poiLng":"120.073897","poiLat":"43.869316","poiName":"天元小区(天元大街)","poiType":"商务住宅;住宅区;住宅小区","poiAddress":"天元大街附近","poiBounds":"null","poiPcode":"150000","poiPname":"内蒙古自治区","poiCitycode":"0476","poiCityname":"赤峰市","poiAdcode":"150421","poiAdname":"阿鲁科尔沁旗","poiRegion":"内蒙古自治区/赤峰市/阿鲁科尔沁旗"},{"poiId":"B0FFFEPUV4","poiLocation":"120.070695,43.870988","poiLng":"120.070695","poiLat":"43.870988","poiName":"科技家园","poiType":"商务住宅;住宅区;住宅小区","poiAddress":"天元大街与集通路交叉口东150米","poiBounds":"null","poiPcode":"150000","poiPname":"内蒙古自治区","poiCitycode":"0476","poiCityname":"赤峰市","poiAdcode":"150421","poiAdname":"阿鲁科尔沁旗","poiRegion":"内蒙古自治区/赤峰市/阿鲁科尔沁旗"},{"poiId":"B0FFG8WO22","poiLocation":"120.071328,43.876017","poiLng":"120.071328","poiLat":"43.876017","poiName":"金三角小区","poiType":"商务住宅;住宅区;住宅小区","poiAddress":"","poiBounds":"null","poiPcode":"150000","poiPname":"内蒙古自治区","poiCitycode":"0476","poiCityname":"赤峰市","poiAdcode":"150421","poiAdname":"阿鲁科尔沁旗","poiRegion":"内蒙古自治区/赤峰市/阿鲁科尔沁旗"},{"poiId":"B0FFG0P8H6","poiLocation":"120.068974,43.867305","poiLng":"120.068974","poiLat":"43.867305","poiName":"文化家园","poiType":"商务住宅;住宅区;住宅小区","poiAddress":"集通路与鲁宝线交叉口北100米","poiBounds":"null","poiPcode":"150000","poiPname":"内蒙古自治区","poiCitycode":"0476","poiCityname":"赤峰市","poiAdcode":"150421","poiAdname":"阿鲁科尔沁旗","poiRegion":"内蒙古自治区/赤峰市/阿鲁科尔沁旗"},{"poiId":"B0FFG0N27Z","poiLocation":"120.069626,43.868937","poiLng":"120.069626","poiLat":"43.868937","poiName":"交通家园","poiType":"商务住宅;住宅区;住宅小区","poiAddress":"天元大街与集通路交叉口东南200米","poiBounds":"null","poiPcode":"150000","poiPname":"内蒙古自治区","poiCitycode":"0476","poiCityname":"赤峰市","poiAdcode":"150421","poiAdname":"阿鲁科尔沁旗","poiRegion":"内蒙古自治区/赤峰市/阿鲁科尔沁旗"},{"poiId":"B0FFG0MRUH","poiLocation":"120.068398,43.866893","poiLng":"120.068398","poiLat":"43.866893","poiName":"温馨家园","poiType":"商务住宅;住宅区;住宅小区","poiAddress":"集通路与鲁宝线交叉口西北150米","poiBounds":"null","poiPcode":"150000","poiPname":"内蒙古自治区","poiCitycode":"0476","poiCityname":"赤峰市","poiAdcode":"150421","poiAdname":"阿鲁科尔沁旗","poiRegion":"内蒙古自治区/赤峰市/阿鲁科尔沁旗"},{"poiId":"B0FFG0JS3Z","poiLocation":"120.073214,43.874215","poiLng":"120.073214","poiLat":"43.874215","poiName":"福星家园","poiType":"商务住宅;住宅区;住宅小区","poiAddress":"汉林西街与303国道交叉口南150米","poiBounds":"null","poiPcode":"150000","poiPname":"内蒙古自治区","poiCitycode":"0476","poiCityname":"赤峰市","poiAdcode":"150421","poiAdname":"阿鲁科尔沁旗","poiRegion":"内蒙古自治区/赤峰市/阿鲁科尔沁旗"},{"poiId":"B0FFG0H6AF","poiLocation":"120.071004,43.859784","poiLng":"120.071004","poiLat":"43.859784","poiName":"站前小区","poiType":"商务住宅;住宅区;住宅小区","poiAddress":"集通路东150米","poiBounds":"null","poiPcode":"150000","poiPname":"内蒙古自治区","poiCitycode":"0476","poiCityname":"赤峰市","poiAdcode":"150421","poiAdname":"阿鲁科尔沁旗","poiRegion":"内蒙古自治区/赤峰市/阿鲁科尔沁旗"},{"poiId":"B0FFG0NMZT","poiLocation":"120.087339,43.877576","poiLng":"120.087339","poiLat":"43.877576","poiName":"新华园小区","poiType":"商务住宅;住宅区;住宅小区","poiAddress":"汉林东街与西市路交叉口西150米","poiBounds":"null","poiPcode":"150000","poiPname":"内蒙古自治区","poiCitycode":"0476","poiCityname":"赤峰市","poiAdcode":"150421","poiAdname":"阿鲁科尔沁旗","poiRegion":"内蒙古自治区/赤峰市/阿鲁科尔沁旗"},{"poiId":"B0FFG0IDE1","poiLocation":"120.103527,43.880114","poiLng":"120.103527","poiLat":"43.880114","poiName":"如意家园","poiType":"商务住宅;住宅区;住宅小区","poiAddress":"敖木伦路与汉林路交叉口东南100米","poiBounds":"null","poiPcode":"150000","poiPname":"内蒙古自治区","poiCitycode":"0476","poiCityname":"赤峰市","poiAdcode":"150421","poiAdname":"阿鲁科尔沁旗","poiRegion":"内蒙古自治区/赤峰市/阿鲁科尔沁旗"},{"poiId":"B0FFG0HW94","poiLocation":"120.093740,43.881461","poiLng":"120.093740","poiLat":"43.881461","poiName":"安泰家园","poiType":"商务住宅;住宅区;住宅小区","poiAddress":"和平巷与天山路交叉口西南150米","poiBounds":"null","poiPcode":"150000","poiPname":"内蒙古自治区","poiCitycode":"0476","poiCityname":"赤峰市","poiAdcode":"150421","poiAdname":"阿鲁科尔沁旗","poiRegion":"内蒙古自治区/赤峰市/阿鲁科尔沁旗"},{"poiId":"B0FFG0E8L8","poiLocation":"120.093944,43.871663","poiLng":"120.093944","poiLat":"43.871663","poiName":"滨河花园","poiType":"商务住宅;住宅区;住宅小区","poiAddress":"天元大街与红星路交叉口东150米","poiBounds":"null","poiPcode":"150000","poiPname":"内蒙古自治区","poiCitycode":"0476","poiCityname":"赤峰市","poiAdcode":"150421","poiAdname":"阿鲁科尔沁旗","poiRegion":"内蒙古自治区/赤峰市/阿鲁科尔沁旗"},{"poiId":"B0FFGFYHGZ","poiLocation":"120.093095,43.879730","poiLng":"120.093095","poiLat":"43.879730","poiName":"馨苑小区","poiType":"商务住宅;住宅区;住宅小区","poiAddress":"汉林路附近","poiBounds":"null","poiPcode":"150000","poiPname":"内蒙古自治区","poiCitycode":"0476","poiCityname":"赤峰市","poiAdcode":"150421","poiAdname":"阿鲁科尔沁旗","poiRegion":"内蒙古自治区/赤峰市/阿鲁科尔沁旗"},{"poiId":"B0FFJ9HFBS","poiLocation":"120.103358,43.875493","poiLng":"120.103358","poiLat":"43.875493","poiName":"老土地局小区","poiType":"商务住宅;住宅区;住宅小区","poiAddress":"南新巷与欧木伦路交叉口西北100米","poiBounds":"null","poiPcode":"150000","poiPname":"内蒙古自治区","poiCitycode":"0476","poiCityname":"赤峰市","poiAdcode":"150421","poiAdname":"阿鲁科尔沁旗","poiRegion":"内蒙古自治区/赤峰市/阿鲁科尔沁旗"},{"poiId":"B01DC0I56E","poiLocation":"120.093363,43.877298","poiLng":"120.093363","poiLat":"43.877298","poiName":"中心家园(汉林东街)","poiType":"商务住宅;住宅区;住宅小区","poiAddress":"汉林路","poiBounds":"null","poiPcode":"150000","poiPname":"内蒙古自治区","poiCitycode":"0476","poiCityname":"赤峰市","poiAdcode":"150421","poiAdname":"阿鲁科尔沁旗","poiRegion":"内蒙古自治区/赤峰市/阿鲁科尔沁旗"},{"poiId":"B0FFJRUFZW","poiLocation":"120.073256,43.868605","poiLng":"120.073256","poiLat":"43.868605","poiName":"仁和家园","poiType":"商务住宅;住宅区;住宅小区","poiAddress":"鲁宝线","poiBounds":"null","poiPcode":"150000","poiPname":"内蒙古自治区","poiCitycode":"0476","poiCityname":"赤峰市","poiAdcode":"150421","poiAdname":"阿鲁科尔沁旗","poiRegion":"内蒙古自治区/赤峰市/阿鲁科尔沁旗"},{"poiId":"B0FFK8DPW7","poiLocation":"120.096535,43.878564","poiLng":"120.096535","poiLat":"43.878564","poiName":"王府家园","poiType":"商务住宅;住宅区;住宅小区","poiAddress":"天山路与汉林东街交叉口东100米","poiBounds":"null","poiPcode":"150000","poiPname":"内蒙古自治区","poiCitycode":"0476","poiCityname":"赤峰市","poiAdcode":"150421","poiAdname":"阿鲁科尔沁旗","poiRegion":"内蒙古自治区/赤峰市/阿鲁科尔沁旗"},{"poiId":"B0FFKEGUWN","poiLocation":"120.076628,43.877463","poiLng":"120.076628","poiLat":"43.877463","poiName":"尚景花园","poiType":"商务住宅;住宅区;住宅小区","poiAddress":"汉林西街北50米","poiBounds":"null","poiPcode":"150000","poiPname":"内蒙古自治区","poiCitycode":"0476","poiCityname":"赤峰市","poiAdcode":"150421","poiAdname":"阿鲁科尔沁旗","poiRegion":"内蒙古自治区/赤峰市/阿鲁科尔沁旗"},{"poiId":"B0FFKG0AVB","poiLocation":"120.081773,43.875109","poiLng":"120.081773","poiLat":"43.875109","poiName":"老交通家属楼","poiType":"商务住宅;住宅区;住宅小区","poiAddress":"汉林西街南200米","poiBounds":"null","poiPcode":"150000","poiPname":"内蒙古自治区","poiCitycode":"0476","poiCityname":"赤峰市","poiAdcode":"150421","poiAdname":"阿鲁科尔沁旗","poiRegion":"内蒙古自治区/赤峰市/阿鲁科尔沁旗"},{"poiId":"B01DC0JMWL","poiLocation":"120.092585,43.873060","poiLng":"120.092585","poiLat":"43.873060","poiName":"平安家园(红星路)","poiType":"商务住宅;住宅区;住宅小区","poiAddress":"天元大街与红星路交叉口西北100米","poiBounds":"null","poiPcode":"150000","poiPname":"内蒙古自治区","poiCitycode":"0476","poiCityname":"赤峰市","poiAdcode":"150421","poiAdname":"阿鲁科尔沁旗","poiRegion":"内蒙古自治区/赤峰市/阿鲁科尔沁旗"},{"poiId":"B01DC0I568","poiLocation":"120.098102,43.875515","poiLng":"120.098102","poiLat":"43.875515","poiName":"辉煌小区","poiType":"商务住宅;住宅区;住宅小区","poiAddress":"天山镇胜利路","poiBounds":"null","poiPcode":"150000","poiPname":"内蒙古自治区","poiCitycode":"0476","poiCityname":"赤峰市","poiAdcode":"150421","poiAdname":"阿鲁科尔沁旗","poiRegion":"内蒙古自治区/赤峰市/阿鲁科尔沁旗"},{"poiId":"B01DC159H2","poiLocation":"120.098147,43.876561","poiLng":"120.098147","poiLat":"43.876561","poiName":"吉祥家园(胜利路)","poiType":"商务住宅;住宅区;住宅小区","poiAddress":"天山路与胜利路交叉口东150米","poiBounds":"null","poiPcode":"150000","poiPname":"内蒙古自治区","poiCitycode":"0476","poiCityname":"赤峰市","poiAdcode":"150421","poiAdname":"阿鲁科尔沁旗","poiRegion":"内蒙古自治区/赤峰市/阿鲁科尔沁旗"},{"poiId":"B0FFG0PF6O","poiLocation":"120.094648,43.872590","poiLng":"120.094648","poiLat":"43.872590","poiName":"向阳社区","poiType":"商务住宅;住宅区;住宅小区","poiAddress":"天元大街与红星路交叉口东150米","poiBounds":"null","poiPcode":"150000","poiPname":"内蒙古自治区","poiCitycode":"0476","poiCityname":"赤峰市","poiAdcode":"150421","poiAdname":"阿鲁科尔沁旗","poiRegion":"内蒙古自治区/赤峰市/阿鲁科尔沁旗"},{"poiId":"B01DC0JAK8","poiLocation":"120.087713,43.878273","poiLng":"120.087713","poiLat":"43.878273","poiName":"温馨家园(西市路)","poiType":"商务住宅;住宅区;住宅小区","poiAddress":"汉林路与西市路交叉口西南100米","poiBounds":"null","poiPcode":"150000","poiPname":"内蒙古自治区","poiCitycode":"0476","poiCityname":"赤峰市","poiAdcode":"150421","poiAdname":"阿鲁科尔沁旗","poiRegion":"内蒙古自治区/赤峰市/阿鲁科尔沁旗"},{"poiId":"B0FFH24CHP","poiLocation":"120.096678,43.883187","poiLng":"120.096678","poiLat":"43.883187","poiName":"集安小区","poiType":"商务住宅;住宅区;住宅小区","poiAddress":"前进街与和平巷交叉口西北150米","poiBounds":"null","poiPcode":"150000","poiPname":"内蒙古自治区","poiCitycode":"0476","poiCityname":"赤峰市","poiAdcode":"150421","poiAdname":"阿鲁科尔沁旗","poiRegion":"内蒙古自治区/赤峰市/阿鲁科尔沁旗"},{"poiId":"B0FFH1ZG83","poiLocation":"120.087675,43.882960","poiLng":"120.087675","poiLat":"43.882960","poiName":"天佑家园","poiType":"商务住宅;住宅区;住宅小区","poiAddress":"查布嘎路与西市路交叉口东南100米","poiBounds":"null","poiPcode":"150000","poiPname":"内蒙古自治区","poiCitycode":"0476","poiCityname":"赤峰市","poiAdcode":"150421","poiAdname":"阿鲁科尔沁旗","poiRegion":"内蒙古自治区/赤峰市/阿鲁科尔沁旗"},{"poiId":"B0FFH1W7E8","poiLocation":"120.094256,43.875098","poiLng":"120.094256","poiLat":"43.875098","poiName":"和谐家园","poiType":"商务住宅;住宅区;住宅小区","poiAddress":"红星路与胜利路交叉口东150米","poiBounds":"null","poiPcode":"150000","poiPname":"内蒙古自治区","poiCitycode":"0476","poiCityname":"赤峰市","poiAdcode":"150421","poiAdname":"阿鲁科尔沁旗","poiRegion":"内蒙古自治区/赤峰市/阿鲁科尔沁旗"},{"poiId":"B0FFH1VSB5","poiLocation":"120.100164,43.878943","poiLng":"120.100164","poiLat":"43.878943","poiName":"碧景华庭","poiType":"商务住宅;住宅区;住宅小区","poiAddress":"前进街与汉林东街交叉口东北100米","poiBounds":"null","poiPcode":"150000","poiPname":"内蒙古自治区","poiCitycode":"0476","poiCityname":"赤峰市","poiAdcode":"150421","poiAdname":"阿鲁科尔沁旗","poiRegion":"内蒙古自治区/赤峰市/阿鲁科尔沁旗"},{"poiId":"B0FFH1UWUR","poiLocation":"120.098638,43.884369","poiLng":"120.098638","poiLat":"43.884369","poiName":"众联小区","poiType":"商务住宅;住宅区;住宅小区","poiAddress":"前进街与和平巷交叉口北200米","poiBounds":"null","poiPcode":"150000","poiPname":"内蒙古自治区","poiCitycode":"0476","poiCityname":"赤峰市","poiAdcode":"150421","poiAdname":"阿鲁科尔沁旗","poiRegion":"内蒙古自治区/赤峰市/阿鲁科尔沁旗"},{"poiId":"B0FFHBLHLI","poiLocation":"120.094378,43.876163","poiLng":"120.094378","poiLat":"43.876163","poiName":"天山宾馆小区","poiType":"商务住宅;住宅区;住宅小区","poiAddress":"益民商业步行街与胜利巷交叉口南100米","poiBounds":"null","poiPcode":"150000","poiPname":"内蒙古自治区","poiCitycode":"0476","poiCityname":"赤峰市","poiAdcode":"150421","poiAdname":"阿鲁科尔沁旗","poiRegion":"内蒙古自治区/赤峰市/阿鲁科尔沁旗"},{"poiId":"B0FFHBLEUT","poiLocation":"120.053711,43.873628","poiLng":"120.053711","poiLat":"43.873628","poiName":"学院华庭","poiType":"商务住宅;住宅区;住宅小区","poiAddress":"汉林西街西100米","poiBounds":"null","poiPcode":"150000","poiPname":"内蒙古自治区","poiCitycode":"0476","poiCityname":"赤峰市","poiAdcode":"150421","poiAdname":"阿鲁科尔沁旗","poiRegion":"内蒙古自治区/赤峰市/阿鲁科尔沁旗"},{"poiId":"B0FFHB8X9D","poiLocation":"120.090786,43.880068","poiLng":"120.090786","poiLat":"43.880068","poiName":"阿旗报社家属楼","poiType":"商务住宅;住宅区;住宅小区","poiAddress":"红旗路与和平路交汇处西路南","poiBounds":"null","poiPcode":"150000","poiPname":"内蒙古自治区","poiCitycode":"0476","poiCityname":"赤峰市","poiAdcode":"150421","poiAdname":"阿鲁科尔沁旗","poiRegion":"内蒙古自治区/赤峰市/阿鲁科尔沁旗"},{"poiId":"B0FFH1UE58","poiLocation":"120.073047,43.876984","poiLng":"120.073047","poiLat":"43.876984","poiName":"怡园小区","poiType":"商务住宅;住宅区;住宅小区","poiAddress":"汉林西街与303国道交叉口西北100米","poiBounds":"null","poiPcode":"150000","poiPname":"内蒙古自治区","poiCitycode":"0476","poiCityname":"赤峰市","poiAdcode":"150421","poiAdname":"阿鲁科尔沁旗","poiRegion":"内蒙古自治区/赤峰市/阿鲁科尔沁旗"},{"poiId":"B0FFH1SUA5","poiLocation":"120.097142,43.880413","poiLng":"120.097142","poiLat":"43.880413","poiName":"逸安小区","poiType":"商务住宅;住宅区;住宅小区","poiAddress":"和平路与天山路交叉口东150米","poiBounds":"null","poiPcode":"150000","poiPname":"内蒙古自治区","poiCitycode":"0476","poiCityname":"赤峰市","poiAdcode":"150421","poiAdname":"阿鲁科尔沁旗","poiRegion":"内蒙古自治区/赤峰市/阿鲁科尔沁旗"},{"poiId":"B0FFH1HJKR","poiLocation":"120.082044,43.873970","poiLng":"120.082044","poiLat":"43.873970","poiName":"丽水欣居","poiType":"商务住宅;住宅区;住宅小区","poiAddress":"滨河西巷2","poiBounds":"null","poiPcode":"150000","poiPname":"内蒙古自治区","poiCitycode":"0476","poiCityname":"赤峰市","poiAdcode":"150421","poiAdname":"阿鲁科尔沁旗","poiRegion":"内蒙古自治区/赤峰市/阿鲁科尔沁旗"},{"poiId":"B0FFH18WDQ","poiLocation":"120.074526,43.874241","poiLng":"120.074526","poiLat":"43.874241","poiName":"房产小区","poiType":"商务住宅;住宅区;住宅小区","poiAddress":"G303(汉林西街)","poiBounds":"null","poiPcode":"150000","poiPname":"内蒙古自治区","poiCitycode":"0476","poiCityname":"赤峰市","poiAdcode":"150421","poiAdname":"阿鲁科尔沁旗","poiRegion":"内蒙古自治区/赤峰市/阿鲁科尔沁旗"},{"poiId":"B0FFGZTJMJ","poiLocation":"120.068144,43.876210","poiLng":"120.068144","poiLat":"43.876210","poiName":"阿旗棚户区西片","poiType":"商务住宅;住宅区;住宅小区","poiAddress":"汉林西街与集通路交叉口西北200米","poiBounds":"null","poiPcode":"150000","poiPname":"内蒙古自治区","poiCitycode":"0476","poiCityname":"赤峰市","poiAdcode":"150421","poiAdname":"阿鲁科尔沁旗","poiRegion":"内蒙古自治区/赤峰市/阿鲁科尔沁旗"},{"poiId":"B0FFGZE7DZ","poiLocation":"120.058481,43.868321","poiLng":"120.058481","poiLat":"43.868321","poiName":"峰景新城c区","poiType":"商务住宅;住宅区;住宅小区","poiAddress":"天元大街","poiBounds":"null","poiPcode":"150000","poiPname":"内蒙古自治区","poiCitycode":"0476","poiCityname":"赤峰市","poiAdcode":"150421","poiAdname":"阿鲁科尔沁旗","poiRegion":"内蒙古自治区/赤峰市/阿鲁科尔沁旗"},{"poiId":"B01DC0J03C","poiLocation":"120.066158,43.873889","poiLng":"120.066158","poiLat":"43.873889","poiName":"教育家园(罕乌拉东路)","poiType":"商务住宅;住宅区;住宅小区","poiAddress":"汉林西街与罕乌拉东路交叉口西南150米","poiBounds":"null","poiPcode":"150000","poiPname":"内蒙古自治区","poiCitycode":"0476","poiCityname":"赤峰市","poiAdcode":"150421","poiAdname":"阿鲁科尔沁旗","poiRegion":"内蒙古自治区/赤峰市/阿鲁科尔沁旗"},{"poiId":"B0FFHUVE4D","poiLocation":"120.064929,43.864232","poiLng":"120.064929","poiLat":"43.864232","poiName":"沁园·西区","poiType":"商务住宅;住宅区;住宅小区","poiAddress":"鲁宝线南50米","poiBounds":"null","poiPcode":"150000","poiPname":"内蒙古自治区","poiCitycode":"0476","poiCityname":"赤峰市","poiAdcode":"150421","poiAdname":"阿鲁科尔沁旗","poiRegion":"内蒙古自治区/赤峰市/阿鲁科尔沁旗"},{"poiId":"B0FFHOG8QX","poiLocation":"120.085073,43.875550","poiLng":"120.085073","poiLat":"43.875550","poiName":"碧水佳苑","poiType":"商务住宅;住宅区;住宅小区","poiAddress":"汉林西街南200米","poiBounds":"null","poiPcode":"150000","poiPname":"内蒙古自治区","poiCitycode":"0476","poiCityname":"赤峰市","poiAdcode":"150421","poiAdname":"阿鲁科尔沁旗","poiRegion":"内蒙古自治区/赤峰市/阿鲁科尔沁旗"},{"poiId":"B0FFHNNEYT","poiLocation":"120.075274,43.876373","poiLng":"120.075274","poiLat":"43.876373","poiName":"平安家园","poiType":"商务住宅;住宅区;住宅小区","poiAddress":"汉林西街与303国道交叉口东100米","poiBounds":"null","poiPcode":"150000","poiPname":"内蒙古自治区","poiCitycode":"0476","poiCityname":"赤峰市","poiAdcode":"150421","poiAdname":"阿鲁科尔沁旗","poiRegion":"内蒙古自治区/赤峰市/阿鲁科尔沁旗"},{"poiId":"B01DC0JD5C","poiLocation":"120.062272,43.873655","poiLng":"120.062272","poiLat":"43.873655","poiName":"国税家园","poiType":"商务住宅;住宅区;住宅小区","poiAddress":"阿旗新区","poiBounds":"null","poiPcode":"150000","poiPname":"内蒙古自治区","poiCitycode":"0476","poiCityname":"赤峰市","poiAdcode":"150421","poiAdname":"阿鲁科尔沁旗","poiRegion":"内蒙古自治区/赤峰市/阿鲁科尔沁旗"},{"poiId":"B0FFIBZHTY","poiLocation":"120.063689,43.866622","poiLng":"120.063689","poiLat":"43.866622","poiName":"益民小区","poiType":"商务住宅;住宅区;住宅小区","poiAddress":"罕乌拉西路西50米","poiBounds":"null","poiPcode":"150000","poiPname":"内蒙古自治区","poiCitycode":"0476","poiCityname":"赤峰市","poiAdcode":"150421","poiAdname":"阿鲁科尔沁旗","poiRegion":"内蒙古自治区/赤峰市/阿鲁科尔沁旗"},{"poiId":"B0FFIJOE7B","poiLocation":"120.102868,43.877028","poiLng":"120.102868","poiLat":"43.877028","poiName":"老交警队家属楼","poiType":"商务住宅;住宅区;住宅小区","poiAddress":"欧木伦路与胜利巷交叉口南100米","poiBounds":"null","poiPcode":"150000","poiPname":"内蒙古自治区","poiCitycode":"0476","poiCityname":"赤峰市","poiAdcode":"150421","poiAdname":"阿鲁科尔沁旗","poiRegion":"内蒙古自治区/赤峰市/阿鲁科尔沁旗"},{"poiId":"B0FFIBMT41","poiLocation":"120.095220,43.886102","poiLng":"120.095220","poiLat":"43.886102","poiName":"粮食仓库小区","poiType":"商务住宅;住宅区;住宅小区","poiAddress":"查布嘎路与查布杆路交叉口东150米","poiBounds":"null","poiPcode":"150000","poiPname":"内蒙古自治区","poiCitycode":"0476","poiCityname":"赤峰市","poiAdcode":"150421","poiAdname":"阿鲁科尔沁旗","poiRegion":"内蒙古自治区/赤峰市/阿鲁科尔沁旗"},{"poiId":"B0FFI76KEZ","poiLocation":"120.096230,43.868612","poiLng":"120.096230","poiLat":"43.868612","poiName":"海天家园","poiType":"商务住宅;住宅区;住宅小区","poiAddress":"鲁宝线附近","poiBounds":"null","poiPcode":"150000","poiPname":"内蒙古自治区","poiCitycode":"0476","poiCityname":"赤峰市","poiAdcode":"150421","poiAdname":"阿鲁科尔沁旗","poiRegion":"内蒙古自治区/赤峰市/阿鲁科尔沁旗"},{"poiId":"B0FFJ01A4C","poiLocation":"120.091440,43.884649","poiLng":"120.091440","poiLat":"43.884649","poiName":"家和园","poiType":"商务住宅;住宅区;住宅小区","poiAddress":"查布嘎路与红星路交叉口东100米","poiBounds":"null","poiPcode":"150000","poiPname":"内蒙古自治区","poiCitycode":"0476","poiCityname":"赤峰市","poiAdcode":"150421","poiAdname":"阿鲁科尔沁旗","poiRegion":"内蒙古自治区/赤峰市/阿鲁科尔沁旗"},{"poiId":"B0FFJ04LFQ","poiLocation":"120.064534,43.867990","poiLng":"120.064534","poiLat":"43.867990","poiName":"中央领郡","poiType":"商务住宅;住宅区;住宅小区","poiAddress":"罕乌拉西路东50米","poiBounds":"null","poiPcode":"150000","poiPname":"内蒙古自治区","poiCitycode":"0476","poiCityname":"赤峰市","poiAdcode":"150421","poiAdname":"阿鲁科尔沁旗","poiRegion":"内蒙古自治区/赤峰市/阿鲁科尔沁旗"}]