[{"poiId":"B0FFG0DYET","poiLocation":"120.102905,43.874273","poiLng":"120.102905","poiLat":"43.874273","poiName":"和顺嘉城","poiType":"商务住宅;住宅区;住宅小区","poiAddress":"南新巷与欧木伦路交叉口西南100米","poiBounds":"[[120.102083,43.874814],[120.103483,43.874922],[120.103531,43.874907],[120.103727,43.873837],[120.103695,43.873731],[120.102265,43.873623],[120.102083,43.874814]]","poiPcode":"150000","poiPname":"内蒙古自治区","poiCitycode":"0476","poiCityname":"赤峰市","poiAdcode":"150421","poiAdname":"阿鲁科尔沁旗","poiRegion":"内蒙古自治区/赤峰市/阿鲁科尔沁旗"},{"poiId":"B0FFID654U","poiLocation":"120.075079,43.878787","poiLng":"120.075079","poiLat":"43.878787","poiName":"玉龙家园","poiType":"商务住宅;住宅区;住宅小区","poiAddress":"玉龙家园(汉林西街北300米)","poiBounds":"[[120.074229,43.878865],[120.075146,43.878865],[120.075197,43.878851],[120.075219,43.878826],[120.075224,43.87815],[120.075245,43.878097],[120.075253,43.878049],[120.075267,43.877726],[120.075291,43.877661],[120.075439,43.877374],[120.075465,43.877137],[120.074642,43.877117],[120.074347,43.878353],[120.074234,43.878647],[120.074229,43.878865]]","poiPcode":"150000","poiPname":"内蒙古自治区","poiCitycode":"0476","poiCityname":"赤峰市","poiAdcode":"150421","poiAdname":"阿鲁科尔沁旗","poiRegion":"内蒙古自治区/赤峰市/阿鲁科尔沁旗"},{"poiId":"B01DC0JFNW","poiLocation":"120.095943,43.886841","poiLng":"120.095943","poiLat":"43.886841","poiName":"阿旗粮食小区","poiType":"商务住宅;住宅区;住宅小区","poiAddress":"敖木伦街西靠山巷","poiBounds":"null","poiPcode":"150000","poiPname":"内蒙古自治区","poiCitycode":"0476","poiCityname":"赤峰市","poiAdcode":"150421","poiAdname":"阿鲁科尔沁旗","poiRegion":"内蒙古自治区/赤峰市/阿鲁科尔沁旗"},{"poiId":"B0FFHYFJG5","poiLocation":"120.056678,43.875701","poiLng":"120.056678","poiLat":"43.875701","poiName":"惠民家园","poiType":"商务住宅;住宅区;住宅小区","poiAddress":"学苑路16","poiBounds":"[[120.055787,43.876372],[120.0558,43.874865],[120.056847,43.875038],[120.057646,43.875206],[120.057619,43.876399],[120.055787,43.876372]]","poiPcode":"150000","poiPname":"内蒙古自治区","poiCitycode":"0476","poiCityname":"赤峰市","poiAdcode":"150421","poiAdname":"阿鲁科尔沁旗","poiRegion":"内蒙古自治区/赤峰市/阿鲁科尔沁旗"},{"poiId":"B0FFH1B5OF","poiLocation":"120.099960,43.882381","poiLng":"120.099960","poiLat":"43.882381","poiName":"玛拉泌艾里","poiType":"商务住宅;住宅区;住宅小区","poiAddress":"前进街与和平巷交叉口东150米","poiBounds":"null","poiPcode":"150000","poiPname":"内蒙古自治区","poiCitycode":"0476","poiCityname":"赤峰市","poiAdcode":"150421","poiAdname":"阿鲁科尔沁旗","poiRegion":"内蒙古自治区/赤峰市/阿鲁科尔沁旗"},{"poiId":"B01DC0JEU0","poiLocation":"120.063462,43.873667","poiLng":"120.063462","poiLat":"43.873667","poiName":"园丁小区(罕乌拉西路)","poiType":"商务住宅;住宅区;住宅小区","poiAddress":"汉林西街与罕乌拉西路交叉口西南100米","poiBounds":"[[120.063021,43.87332],[120.063905,43.873322],[120.0639,43.874013],[120.063021,43.874013],[120.063021,43.87332]]","poiPcode":"150000","poiPname":"内蒙古自治区","poiCitycode":"0476","poiCityname":"赤峰市","poiAdcode":"150421","poiAdname":"阿鲁科尔沁旗","poiRegion":"内蒙古自治区/赤峰市/阿鲁科尔沁旗"},{"poiId":"B01DC0JEU1","poiLocation":"120.06467,43.873771","poiLng":"120.06467","poiLat":"43.873771","poiName":"林业家园","poiType":"商务住宅;住宅区;住宅小区","poiAddress":"天山镇新区","poiBounds":"[[120.064095,43.874194],[120.064087,43.873912],[120.064251,43.873904],[120.064256,43.873516],[120.064141,43.873514],[120.064146,43.873332],[120.065155,43.873311],[120.065168,43.874212],[120.064095,43.874194]]","poiPcode":"150000","poiPname":"内蒙古自治区","poiCitycode":"0476","poiCityname":"赤峰市","poiAdcode":"150421","poiAdname":"阿鲁科尔沁旗","poiRegion":"内蒙古自治区/赤峰市/阿鲁科尔沁旗"},{"poiId":"B01DC0J704","poiLocation":"120.097503,43.882963","poiLng":"120.097503","poiLat":"43.882963","poiName":"房建家园","poiType":"商务住宅;住宅区;住宅小区","poiAddress":"天山镇东市场","poiBounds":"null","poiPcode":"150000","poiPname":"内蒙古自治区","poiCitycode":"0476","poiCityname":"赤峰市","poiAdcode":"150421","poiAdname":"阿鲁科尔沁旗","poiRegion":"内蒙古自治区/赤峰市/阿鲁科尔沁旗"},{"poiId":"B01DC0J12J","poiLocation":"120.067995,43.87373","poiLng":"120.067995","poiLat":"43.87373","poiName":"环保家园","poiType":"商务住宅;住宅区;住宅小区","poiAddress":"五道街","poiBounds":"[[120.067431,43.873904],[120.068555,43.8739],[120.068571,43.873559],[120.067425,43.873561],[120.067431,43.873904]]","poiPcode":"150000","poiPname":"内蒙古自治区","poiCitycode":"0476","poiCityname":"赤峰市","poiAdcode":"150421","poiAdname":"阿鲁科尔沁旗","poiRegion":"内蒙古自治区/赤峰市/阿鲁科尔沁旗"},{"poiId":"B01DC15G96","poiLocation":"120.090309,43.877057","poiLng":"120.090309","poiLat":"43.877057","poiName":"旺业小区","poiType":"商务住宅;住宅区;住宅小区","poiAddress":"天山镇汉林路","poiBounds":"[[120.089094,43.877002],[120.08912,43.876849],[120.089856,43.876918],[120.090674,43.877008],[120.091461,43.87709],[120.09143,43.877276],[120.089094,43.877002]]","poiPcode":"150000","poiPname":"内蒙古自治区","poiCitycode":"0476","poiCityname":"赤峰市","poiAdcode":"150421","poiAdname":"阿鲁科尔沁旗","poiRegion":"内蒙古自治区/赤峰市/阿鲁科尔沁旗"},{"poiId":"B01DC0JCAL","poiLocation":"120.067219,43.875387","poiLng":"120.067219","poiLat":"43.875387","poiName":"国土家园(汉林西街)","poiType":"商务住宅;住宅区;住宅小区","poiAddress":"天山镇新区","poiBounds":"[[120.066492,43.875537],[120.067946,43.87568],[120.067957,43.875415],[120.067935,43.875259],[120.067914,43.87523],[120.066532,43.875091],[120.066452,43.875533],[120.066492,43.875537]]","poiPcode":"150000","poiPname":"内蒙古自治区","poiCitycode":"0476","poiCityname":"赤峰市","poiAdcode":"150421","poiAdname":"阿鲁科尔沁旗","poiRegion":"内蒙古自治区/赤峰市/阿鲁科尔沁旗"},{"poiId":"B01DC0JCBG","poiLocation":"120.099838,43.879436","poiLng":"120.099838","poiLat":"43.879436","poiName":"兴银家园","poiType":"商务住宅;住宅区;住宅小区","poiAddress":"天山镇","poiBounds":"null","poiPcode":"150000","poiPname":"内蒙古自治区","poiCitycode":"0476","poiCityname":"赤峰市","poiAdcode":"150421","poiAdname":"阿鲁科尔沁旗","poiRegion":"内蒙古自治区/赤峰市/阿鲁科尔沁旗"},{"poiId":"B01DC0I5IX","poiLocation":"120.067926,43.873008","poiLng":"120.067926","poiLat":"43.873008","poiName":"地税家园(罕乌拉东路)","poiType":"商务住宅;住宅区;住宅小区","poiAddress":"汉林西街与罕乌拉东路交叉口东南200米","poiBounds":"[[120.06857,43.873544],[120.067377,43.873544],[120.067377,43.873565],[120.067296,43.873567],[120.067261,43.872481],[120.068575,43.872471],[120.06857,43.873544]]","poiPcode":"150000","poiPname":"内蒙古自治区","poiCitycode":"0476","poiCityname":"赤峰市","poiAdcode":"150421","poiAdname":"阿鲁科尔沁旗","poiRegion":"内蒙古自治区/赤峰市/阿鲁科尔沁旗"},{"poiId":"B0FFFYXJ0M","poiLocation":"120.077307,43.871724","poiLng":"120.077307","poiLat":"43.871724","poiName":"妇女之家天山办事处盛世社区","poiType":"商务住宅;住宅区;住宅小区","poiAddress":"天元大街北100米","poiBounds":"null","poiPcode":"150000","poiPname":"内蒙古自治区","poiCitycode":"0476","poiCityname":"赤峰市","poiAdcode":"150421","poiAdname":"阿鲁科尔沁旗","poiRegion":"内蒙古自治区/赤峰市/阿鲁科尔沁旗"},{"poiId":"B0FFG9F0M6","poiLocation":"120.087838,43.87416","poiLng":"120.087838","poiLat":"43.87416","poiName":"鑫和园小区","poiType":"商务住宅;住宅区;住宅小区","poiAddress":"南新巷与西市路交叉口西50米","poiBounds":"[[120.086253,43.874605],[120.088605,43.874817],[120.088831,43.873412],[120.088098,43.87334],[120.086256,43.874558],[120.086253,43.874605]]","poiPcode":"150000","poiPname":"内蒙古自治区","poiCitycode":"0476","poiCityname":"赤峰市","poiAdcode":"150421","poiAdname":"阿鲁科尔沁旗","poiRegion":"内蒙古自治区/赤峰市/阿鲁科尔沁旗"},{"poiId":"B0FFGI9HXH","poiLocation":"120.097507,43.887022","poiLng":"120.097507","poiLat":"43.887022","poiName":"天硕家园","poiType":"商务住宅;住宅区;住宅小区","poiAddress":"前进街与查布杆路交叉口东北100米","poiBounds":"[[120.09648,43.888656],[120.097304,43.888908],[120.097322,43.888905],[120.097672,43.888291],[120.098356,43.887233],[120.098355,43.887222],[120.097,43.886792],[120.09698,43.886794],[120.09696,43.886798],[120.096777,43.887074],[120.096621,43.887376],[120.096518,43.887521],[120.096481,43.887555],[120.096338,43.887835],[120.096872,43.888001],[120.09648,43.888656]]","poiPcode":"150000","poiPname":"内蒙古自治区","poiCitycode":"0476","poiCityname":"赤峰市","poiAdcode":"150421","poiAdname":"阿鲁科尔沁旗","poiRegion":"内蒙古自治区/赤峰市/阿鲁科尔沁旗"},{"poiId":"B0FFG1DQNH","poiLocation":"120.048744,43.886117","poiLng":"120.048744","poiLat":"43.886117","poiName":"瑞隆家园","poiType":"商务住宅;住宅区;住宅小区","poiAddress":"巴天线与303国道交叉口西南100米","poiBounds":"null","poiPcode":"150000","poiPname":"内蒙古自治区","poiCitycode":"0476","poiCityname":"赤峰市","poiAdcode":"150421","poiAdname":"阿鲁科尔沁旗","poiRegion":"内蒙古自治区/赤峰市/阿鲁科尔沁旗"},{"poiId":"B0FFG0L1BA","poiLocation":"120.053749,43.869655","poiLng":"120.053749","poiLat":"43.869655","poiName":"赛罕家园","poiType":"商务住宅;住宅区;住宅小区","poiAddress":"天元大街南100米","poiBounds":"[[120.053207,43.869936],[120.053223,43.869366],[120.054269,43.869372],[120.054269,43.869751],[120.054314,43.869754],[120.054328,43.869932],[120.053207,43.869936]]","poiPcode":"150000","poiPname":"内蒙古自治区","poiCitycode":"0476","poiCityname":"赤峰市","poiAdcode":"150421","poiAdname":"阿鲁科尔沁旗","poiRegion":"内蒙古自治区/赤峰市/阿鲁科尔沁旗"},{"poiId":"B0FFG1DTLB","poiLocation":"120.058197,43.866744","poiLng":"120.058197","poiLat":"43.866744","poiName":"峰景新城A区","poiType":"商务住宅;住宅区;住宅小区","poiAddress":"天山镇新区","poiBounds":"[[120.05571,43.867116],[120.055718,43.86633],[120.058713,43.866335],[120.060715,43.866354],[120.060656,43.867161],[120.055763,43.867145],[120.05571,43.867116]]","poiPcode":"150000","poiPname":"内蒙古自治区","poiCitycode":"0476","poiCityname":"赤峰市","poiAdcode":"150421","poiAdname":"阿鲁科尔沁旗","poiRegion":"内蒙古自治区/赤峰市/阿鲁科尔沁旗"},{"poiId":"B0FFG0Q3MY","poiLocation":"119.826450,43.670337","poiLng":"119.826450","poiLat":"43.670337","poiName":"双胜家园","poiType":"商务住宅;住宅区;住宅小区","poiAddress":"阿旗双胜镇","poiBounds":"[[119.82591,43.670941],[119.826741,43.670131],[119.826704,43.670079],[119.82605,43.669701],[119.825164,43.670503],[119.82591,43.670941]]","poiPcode":"150000","poiPname":"内蒙古自治区","poiCitycode":"0476","poiCityname":"赤峰市","poiAdcode":"150421","poiAdname":"阿鲁科尔沁旗","poiRegion":"内蒙古自治区/赤峰市/阿鲁科尔沁旗"},{"poiId":"B0FFG0T8IX","poiLocation":"120.067731,43.865257","poiLng":"120.067731","poiLat":"43.865257","poiName":"牧原小区","poiType":"商务住宅;住宅区;住宅小区","poiAddress":"鲁宝线南50米","poiBounds":"[[120.067416,43.865461],[120.067402,43.864943],[120.068014,43.864943],[120.068025,43.865645],[120.067927,43.865646],[120.067416,43.865461]]","poiPcode":"150000","poiPname":"内蒙古自治区","poiCitycode":"0476","poiCityname":"赤峰市","poiAdcode":"150421","poiAdname":"阿鲁科尔沁旗","poiRegion":"内蒙古自治区/赤峰市/阿鲁科尔沁旗"},{"poiId":"B0FFG0PNXQ","poiLocation":"120.070445,43.872682","poiLng":"120.070445","poiLat":"43.872682","poiName":"水务家园","poiType":"商务住宅;住宅区;住宅小区","poiAddress":"集通路","poiBounds":"[[120.069959,43.87303],[120.06998,43.872349],[120.070951,43.872346],[120.070935,43.872454],[120.070984,43.872456],[120.070844,43.873029],[120.069959,43.87303]]","poiPcode":"150000","poiPname":"内蒙古自治区","poiCitycode":"0476","poiCityname":"赤峰市","poiAdcode":"150421","poiAdname":"阿鲁科尔沁旗","poiRegion":"内蒙古自治区/赤峰市/阿鲁科尔沁旗"},{"poiId":"B0FFG0PLDE","poiLocation":"120.099823,43.880588","poiLng":"120.099823","poiLat":"43.880588","poiName":"东市家园","poiType":"商务住宅;住宅区;住宅小区","poiAddress":"前进街与和平路交叉口东100米","poiBounds":"[[120.099555,43.881111],[120.099622,43.880808],[120.09915,43.880757],[120.099233,43.880342],[120.099115,43.880334],[120.099177,43.879978],[120.099992,43.880057],[120.099936,43.880337],[120.100572,43.880403],[120.10037,43.881203],[120.099555,43.881111]]","poiPcode":"150000","poiPname":"内蒙古自治区","poiCitycode":"0476","poiCityname":"赤峰市","poiAdcode":"150421","poiAdname":"阿鲁科尔沁旗","poiRegion":"内蒙古自治区/赤峰市/阿鲁科尔沁旗"},{"poiId":"B0FFG0NR7D","poiLocation":"120.091650,43.875412","poiLng":"120.091650","poiLat":"43.875412","poiName":"东暖热力小区","poiType":"商务住宅;住宅区;住宅小区","poiAddress":"红星路与胜利路交叉口西100米","poiBounds":"null","poiPcode":"150000","poiPname":"内蒙古自治区","poiCitycode":"0476","poiCityname":"赤峰市","poiAdcode":"150421","poiAdname":"阿鲁科尔沁旗","poiRegion":"内蒙古自治区/赤峰市/阿鲁科尔沁旗"},{"poiId":"B0FFG0F8HK","poiLocation":"120.073585,43.873216","poiLng":"120.073585","poiLat":"43.873216","poiName":"同心家园","poiType":"商务住宅;住宅区;住宅小区","poiAddress":"天元大街北200米","poiBounds":"null","poiPcode":"150000","poiPname":"内蒙古自治区","poiCitycode":"0476","poiCityname":"赤峰市","poiAdcode":"150421","poiAdname":"阿鲁科尔沁旗","poiRegion":"内蒙古自治区/赤峰市/阿鲁科尔沁旗"},{"poiId":"B0FFFX8N2C","poiLocation":"120.049726,43.868564","poiLng":"120.049726","poiLat":"43.868564","poiName":"天骄府","poiType":"商务住宅;住宅区;住宅小区","poiAddress":"天元大街","poiBounds":"null","poiPcode":"150000","poiPname":"内蒙古自治区","poiCitycode":"0476","poiCityname":"赤峰市","poiAdcode":"150421","poiAdname":"阿鲁科尔沁旗","poiRegion":"内蒙古自治区/赤峰市/阿鲁科尔沁旗"},{"poiId":"B01DC0JDZQ","poiLocation":"120.058349,43.87276","poiLng":"120.058349","poiLat":"43.87276","poiName":"百合新城","poiType":"商务住宅;住宅区;住宅小区","poiAddress":"阿旗天山镇新区","poiBounds":"[[120.061053,43.873888],[120.055737,43.873334],[120.055747,43.871693],[120.05858,43.871707],[120.05859,43.872186],[120.061052,43.872194],[120.061053,43.873888]]","poiPcode":"150000","poiPname":"内蒙古自治区","poiCitycode":"0476","poiCityname":"赤峰市","poiAdcode":"150421","poiAdname":"阿鲁科尔沁旗","poiRegion":"内蒙古自治区/赤峰市/阿鲁科尔沁旗"},{"poiId":"B01DC0I5EY","poiLocation":"120.087009,43.88099","poiLng":"120.087009","poiLat":"43.88099","poiName":"佳园小区(西市路)","poiType":"商务住宅;住宅区;住宅小区","poiAddress":"西市街","poiBounds":"[[120.086745,43.880216],[120.087592,43.880305],[120.087273,43.881772],[120.086425,43.881664],[120.086745,43.880216]]","poiPcode":"150000","poiPname":"内蒙古自治区","poiCitycode":"0476","poiCityname":"赤峰市","poiAdcode":"150421","poiAdname":"阿鲁科尔沁旗","poiRegion":"内蒙古自治区/赤峰市/阿鲁科尔沁旗"},{"poiId":"B01DC0JD4W","poiLocation":"120.073059,43.872315","poiLng":"120.073059","poiLat":"43.872315","poiName":"鑫园(天元大街)","poiType":"商务住宅;住宅区;住宅小区","poiAddress":"碧海王朝音乐广场二部西北","poiBounds":"null","poiPcode":"150000","poiPname":"内蒙古自治区","poiCitycode":"0476","poiCityname":"赤峰市","poiAdcode":"150421","poiAdname":"阿鲁科尔沁旗","poiRegion":"内蒙古自治区/赤峰市/阿鲁科尔沁旗"},{"poiId":"B01DC15X2Q","poiLocation":"120.092473,43.882831","poiLng":"120.092473","poiLat":"43.882831","poiName":"幸福家园","poiType":"商务住宅;住宅区;住宅小区","poiAddress":"和平巷与红星路交叉口北150米","poiBounds":"[[120.091341,43.882869],[120.093307,43.883069],[120.093384,43.882716],[120.092696,43.882637],[120.092682,43.882699],[120.092183,43.882641],[120.092173,43.882733],[120.091371,43.882663],[120.091341,43.882869]]","poiPcode":"150000","poiPname":"内蒙古自治区","poiCitycode":"0476","poiCityname":"赤峰市","poiAdcode":"150421","poiAdname":"阿鲁科尔沁旗","poiRegion":"内蒙古自治区/赤峰市/阿鲁科尔沁旗"},{"poiId":"B01DC0I6JJ","poiLocation":"120.087246,43.875653","poiLng":"120.087246","poiLat":"43.875653","poiName":"和平小区(胜利巷)","poiType":"商务住宅;住宅区;住宅小区","poiAddress":"西市街","poiBounds":"[[120.085849,43.87616],[120.086189,43.874664],[120.088491,43.874919],[120.088182,43.876849],[120.087318,43.87674],[120.087345,43.876563],[120.087246,43.876551],[120.087273,43.876358],[120.085849,43.87616]]","poiPcode":"150000","poiPname":"内蒙古自治区","poiCitycode":"0476","poiCityname":"赤峰市","poiAdcode":"150421","poiAdname":"阿鲁科尔沁旗","poiRegion":"内蒙古自治区/赤峰市/阿鲁科尔沁旗"},{"poiId":"B01DC0JGKD","poiLocation":"120.062604,43.868733","poiLng":"120.062604","poiLat":"43.868733","poiName":"四季花城","poiType":"商务住宅;住宅区;住宅小区","poiAddress":"罕乌拉西路西150米","poiBounds":"[[120.063246,43.869408],[120.061586,43.869403],[120.061462,43.869358],[120.061452,43.868219],[120.061583,43.868144],[120.063847,43.868159],[120.063965,43.8682],[120.063951,43.868944],[120.063257,43.86895],[120.063246,43.869408]]","poiPcode":"150000","poiPname":"内蒙古自治区","poiCitycode":"0476","poiCityname":"赤峰市","poiAdcode":"150421","poiAdname":"阿鲁科尔沁旗","poiRegion":"内蒙古自治区/赤峰市/阿鲁科尔沁旗"},{"poiId":"B01DC0JBFR","poiLocation":"120.090587,43.875819","poiLng":"120.090587","poiLat":"43.875819","poiName":"向阳小区(胜利路)","poiType":"商务住宅;住宅区;住宅小区","poiAddress":"红星路与胜利巷交叉口西南200米","poiBounds":"[[120.088977,43.876175],[120.09229,43.876519],[120.092349,43.876501],[120.092378,43.876476],[120.092496,43.875985],[120.091772,43.875902],[120.091788,43.875838],[120.091694,43.875827],[120.091788,43.875351],[120.089272,43.875075],[120.089221,43.875078],[120.089184,43.875102],[120.088929,43.876121],[120.088932,43.876148],[120.088977,43.876175]]","poiPcode":"150000","poiPname":"内蒙古自治区","poiCitycode":"0476","poiCityname":"赤峰市","poiAdcode":"150421","poiAdname":"阿鲁科尔沁旗","poiRegion":"内蒙古自治区/赤峰市/阿鲁科尔沁旗"},{"poiId":"B01DC0JK44","poiLocation":"120.091581,43.876818","poiLng":"120.091581","poiLat":"43.876818","poiName":"祥和家园(红星路)","poiType":"商务住宅;住宅区;住宅小区","poiAddress":"钢铁西街","poiBounds":"null","poiPcode":"150000","poiPname":"内蒙古自治区","poiCitycode":"0476","poiCityname":"赤峰市","poiAdcode":"150421","poiAdname":"阿鲁科尔沁旗","poiRegion":"内蒙古自治区/赤峰市/阿鲁科尔沁旗"},{"poiId":"B01DC0J06F","poiLocation":"120.093286,43.878529","poiLng":"120.093286","poiLat":"43.878529","poiName":"钟楼家园","poiType":"商务住宅;住宅区;住宅小区","poiAddress":"汉林路","poiBounds":"null","poiPcode":"150000","poiPname":"内蒙古自治区","poiCitycode":"0476","poiCityname":"赤峰市","poiAdcode":"150421","poiAdname":"阿鲁科尔沁旗","poiRegion":"内蒙古自治区/赤峰市/阿鲁科尔沁旗"},{"poiId":"B01DC0JGJS","poiLocation":"120.093328,43.876034","poiLng":"120.093328","poiLat":"43.876034","poiName":"惠安小区(红星路)","poiType":"商务住宅;住宅区;住宅小区","poiAddress":"红星街","poiBounds":"[[120.092549,43.876539],[120.092779,43.875443],[120.092836,43.87541],[120.094161,43.875555],[120.093809,43.876669],[120.092549,43.876539]]","poiPcode":"150000","poiPname":"内蒙古自治区","poiCitycode":"0476","poiCityname":"赤峰市","poiAdcode":"150421","poiAdname":"阿鲁科尔沁旗","poiRegion":"内蒙古自治区/赤峰市/阿鲁科尔沁旗"},{"poiId":"B01DC0I565","poiLocation":"120.073897,43.869316","poiLng":"120.073897","poiLat":"43.869316","poiName":"天元小区(天元大街)","poiType":"商务住宅;住宅区;住宅小区","poiAddress":"天元大街附近","poiBounds":"[[120.070938,43.870169],[120.07332,43.870192],[120.073625,43.870181],[120.074591,43.870247],[120.077,43.870529],[120.077118,43.870506],[120.077193,43.870471],[120.077236,43.870405],[120.077284,43.870308],[120.077252,43.868951],[120.075508,43.868966],[120.075476,43.868947],[120.075476,43.868878],[120.075546,43.868696],[120.075701,43.868332],[120.075704,43.868257],[120.073655,43.86822],[120.070793,43.868185],[120.070825,43.868806],[120.070836,43.869682],[120.07086,43.870125],[120.070895,43.870167],[120.070938,43.870169]]","poiPcode":"150000","poiPname":"内蒙古自治区","poiCitycode":"0476","poiCityname":"赤峰市","poiAdcode":"150421","poiAdname":"阿鲁科尔沁旗","poiRegion":"内蒙古自治区/赤峰市/阿鲁科尔沁旗"},{"poiId":"B0FFFEPUV4","poiLocation":"120.070695,43.870988","poiLng":"120.070695","poiLat":"43.870988","poiName":"科技家园","poiType":"商务住宅;住宅区;住宅小区","poiAddress":"天元大街与集通路交叉口东150米","poiBounds":"[[120.070306,43.87169],[120.070301,43.870932],[120.071535,43.870938],[120.071521,43.8717],[120.070306,43.87169]]","poiPcode":"150000","poiPname":"内蒙古自治区","poiCitycode":"0476","poiCityname":"赤峰市","poiAdcode":"150421","poiAdname":"阿鲁科尔沁旗","poiRegion":"内蒙古自治区/赤峰市/阿鲁科尔沁旗"},{"poiId":"B0FFG8WO22","poiLocation":"120.071328,43.876017","poiLng":"120.071328","poiLat":"43.876017","poiName":"金三角小区","poiType":"商务住宅;住宅区;住宅小区","poiAddress":"","poiBounds":"[[120.070477,43.876806],[120.070884,43.875356],[120.072268,43.875558],[120.072129,43.87618],[120.070587,43.876841],[120.070477,43.876806]]","poiPcode":"150000","poiPname":"内蒙古自治区","poiCitycode":"0476","poiCityname":"赤峰市","poiAdcode":"150421","poiAdname":"阿鲁科尔沁旗","poiRegion":"内蒙古自治区/赤峰市/阿鲁科尔沁旗"},{"poiId":"B0FFG0P8H6","poiLocation":"120.068974,43.867305","poiLng":"120.068974","poiLat":"43.867305","poiName":"文化家园","poiType":"商务住宅;住宅区;住宅小区","poiAddress":"集通路与鲁宝线交叉口北100米","poiBounds":"null","poiPcode":"150000","poiPname":"内蒙古自治区","poiCitycode":"0476","poiCityname":"赤峰市","poiAdcode":"150421","poiAdname":"阿鲁科尔沁旗","poiRegion":"内蒙古自治区/赤峰市/阿鲁科尔沁旗"},{"poiId":"B0FFG0N27Z","poiLocation":"120.069626,43.868937","poiLng":"120.069626","poiLat":"43.868937","poiName":"交通家园","poiType":"商务住宅;住宅区;住宅小区","poiAddress":"天元大街与集通路交叉口东南200米","poiBounds":"null","poiPcode":"150000","poiPname":"内蒙古自治区","poiCitycode":"0476","poiCityname":"赤峰市","poiAdcode":"150421","poiAdname":"阿鲁科尔沁旗","poiRegion":"内蒙古自治区/赤峰市/阿鲁科尔沁旗"},{"poiId":"B0FFG0MRUH","poiLocation":"120.068398,43.866893","poiLng":"120.068398","poiLat":"43.866893","poiName":"温馨家园","poiType":"商务住宅;住宅区;住宅小区","poiAddress":"集通路与鲁宝线交叉口西北150米","poiBounds":"[[120.067812,43.867375],[120.06782,43.866365],[120.068871,43.866373],[120.06889,43.867371],[120.067812,43.867375]]","poiPcode":"150000","poiPname":"内蒙古自治区","poiCitycode":"0476","poiCityname":"赤峰市","poiAdcode":"150421","poiAdname":"阿鲁科尔沁旗","poiRegion":"内蒙古自治区/赤峰市/阿鲁科尔沁旗"},{"poiId":"B0FFG0JS3Z","poiLocation":"120.073214,43.874215","poiLng":"120.073214","poiLat":"43.874215","poiName":"福星家园","poiType":"商务住宅;住宅区;住宅小区","poiAddress":"汉林西街与303国道交叉口南150米","poiBounds":"[[120.071187,43.874104],[120.071166,43.873801],[120.072655,43.873781],[120.073856,43.873778],[120.07436,43.873781],[120.074444,43.873828],[120.074478,43.873952],[120.074323,43.874905],[120.074288,43.875048],[120.073483,43.874947],[120.073545,43.874613],[120.072966,43.874561],[120.072971,43.874394],[120.072606,43.874342],[120.072636,43.874296],[120.071187,43.874104]]","poiPcode":"150000","poiPname":"内蒙古自治区","poiCitycode":"0476","poiCityname":"赤峰市","poiAdcode":"150421","poiAdname":"阿鲁科尔沁旗","poiRegion":"内蒙古自治区/赤峰市/阿鲁科尔沁旗"},{"poiId":"B0FFG0H6AF","poiLocation":"120.071004,43.859784","poiLng":"120.071004","poiLat":"43.859784","poiName":"站前小区","poiType":"商务住宅;住宅区;住宅小区","poiAddress":"集通路东150米","poiBounds":"[[120.069555,43.860185],[120.069549,43.860062],[120.069582,43.859543],[120.069592,43.85952],[120.069622,43.859495],[120.069658,43.859484],[120.072317,43.859281],[120.072413,43.860104],[120.070834,43.860218],[120.069555,43.860185]]","poiPcode":"150000","poiPname":"内蒙古自治区","poiCitycode":"0476","poiCityname":"赤峰市","poiAdcode":"150421","poiAdname":"阿鲁科尔沁旗","poiRegion":"内蒙古自治区/赤峰市/阿鲁科尔沁旗"},{"poiId":"B0FFG0NMZT","poiLocation":"120.087339,43.877576","poiLng":"120.087339","poiLat":"43.877576","poiName":"新华园小区","poiType":"商务住宅;住宅区;住宅小区","poiAddress":"汉林东街与西市路交叉口西150米","poiBounds":"null","poiPcode":"150000","poiPname":"内蒙古自治区","poiCitycode":"0476","poiCityname":"赤峰市","poiAdcode":"150421","poiAdname":"阿鲁科尔沁旗","poiRegion":"内蒙古自治区/赤峰市/阿鲁科尔沁旗"},{"poiId":"B0FFG0IDE1","poiLocation":"120.103527,43.880114","poiLng":"120.103527","poiLat":"43.880114","poiName":"如意家园","poiType":"商务住宅;住宅区;住宅小区","poiAddress":"敖木伦路与汉林路交叉口东南100米","poiBounds":"[[120.102568,43.880597],[120.102761,43.879437],[120.104186,43.879541],[120.104119,43.879854],[120.104121,43.879866],[120.104151,43.87991],[120.104534,43.879959],[120.104432,43.880738],[120.102568,43.880597]]","poiPcode":"150000","poiPname":"内蒙古自治区","poiCitycode":"0476","poiCityname":"赤峰市","poiAdcode":"150421","poiAdname":"阿鲁科尔沁旗","poiRegion":"内蒙古自治区/赤峰市/阿鲁科尔沁旗"},{"poiId":"B0FFG0HW94","poiLocation":"120.093740,43.881461","poiLng":"120.093740","poiLat":"43.881461","poiName":"安泰家园","poiType":"商务住宅;住宅区;住宅小区","poiAddress":"和平巷与天山路交叉口西南150米","poiBounds":"null","poiPcode":"150000","poiPname":"内蒙古自治区","poiCitycode":"0476","poiCityname":"赤峰市","poiAdcode":"150421","poiAdname":"阿鲁科尔沁旗","poiRegion":"内蒙古自治区/赤峰市/阿鲁科尔沁旗"},{"poiId":"B0FFG0E8L8","poiLocation":"120.093944,43.871663","poiLng":"120.093944","poiLat":"43.871663","poiName":"滨河花园","poiType":"商务住宅;住宅区;住宅小区","poiAddress":"天元大街与红星路交叉口东150米","poiBounds":"[[120.092043,43.872305],[120.095868,43.872621],[120.095916,43.872402],[120.096209,43.870654],[120.09479,43.870526],[120.094773,43.870582],[120.092959,43.871098],[120.091204,43.871694],[120.090675,43.871903],[120.090151,43.872136],[120.090724,43.872189],[120.092043,43.872305]]","poiPcode":"150000","poiPname":"内蒙古自治区","poiCitycode":"0476","poiCityname":"赤峰市","poiAdcode":"150421","poiAdname":"阿鲁科尔沁旗","poiRegion":"内蒙古自治区/赤峰市/阿鲁科尔沁旗"},{"poiId":"B0FFGFYHGZ","poiLocation":"120.093095,43.879730","poiLng":"120.093095","poiLat":"43.879730","poiName":"馨苑小区","poiType":"商务住宅;住宅区;住宅小区","poiAddress":"汉林路附近","poiBounds":"[[120.092546,43.879829],[120.092606,43.879509],[120.094023,43.879643],[120.093881,43.880372],[120.093164,43.880307],[120.09324,43.879918],[120.092546,43.879829]]","poiPcode":"150000","poiPname":"内蒙古自治区","poiCitycode":"0476","poiCityname":"赤峰市","poiAdcode":"150421","poiAdname":"阿鲁科尔沁旗","poiRegion":"内蒙古自治区/赤峰市/阿鲁科尔沁旗"},{"poiId":"B0FFJ9HFBS","poiLocation":"120.103358,43.875493","poiLng":"120.103358","poiLat":"43.875493","poiName":"老土地局小区","poiType":"商务住宅;住宅区;住宅小区","poiAddress":"南新巷与欧木伦路交叉口西北100米","poiBounds":"null","poiPcode":"150000","poiPname":"内蒙古自治区","poiCitycode":"0476","poiCityname":"赤峰市","poiAdcode":"150421","poiAdname":"阿鲁科尔沁旗","poiRegion":"内蒙古自治区/赤峰市/阿鲁科尔沁旗"},{"poiId":"B01DC0I56E","poiLocation":"120.093363,43.877298","poiLng":"120.093363","poiLat":"43.877298","poiName":"中心家园(汉林东街)","poiType":"商务住宅;住宅区;住宅小区","poiAddress":"汉林路","poiBounds":"[[120.092491,43.877257],[120.092596,43.876734],[120.092636,43.876705],[120.094182,43.876867],[120.093962,43.877943],[120.092729,43.877818],[120.092841,43.877295],[120.092491,43.877257]]","poiPcode":"150000","poiPname":"内蒙古自治区","poiCitycode":"0476","poiCityname":"赤峰市","poiAdcode":"150421","poiAdname":"阿鲁科尔沁旗","poiRegion":"内蒙古自治区/赤峰市/阿鲁科尔沁旗"},{"poiId":"B0FFJRUFZW","poiLocation":"120.073256,43.868605","poiLng":"120.073256","poiLat":"43.868605","poiName":"仁和家园","poiType":"商务住宅;住宅区;住宅小区","poiAddress":"鲁宝线","poiBounds":"null","poiPcode":"150000","poiPname":"内蒙古自治区","poiCitycode":"0476","poiCityname":"赤峰市","poiAdcode":"150421","poiAdname":"阿鲁科尔沁旗","poiRegion":"内蒙古自治区/赤峰市/阿鲁科尔沁旗"},{"poiId":"B0FFK8DPW7","poiLocation":"120.096535,43.878564","poiLng":"120.096535","poiLat":"43.878564","poiName":"王府家园","poiType":"商务住宅;住宅区;住宅小区","poiAddress":"天山路与汉林东街交叉口东100米","poiBounds":"null","poiPcode":"150000","poiPname":"内蒙古自治区","poiCitycode":"0476","poiCityname":"赤峰市","poiAdcode":"150421","poiAdname":"阿鲁科尔沁旗","poiRegion":"内蒙古自治区/赤峰市/阿鲁科尔沁旗"},{"poiId":"B0FFKEGUWN","poiLocation":"120.076628,43.877463","poiLng":"120.076628","poiLat":"43.877463","poiName":"尚景花园","poiType":"商务住宅;住宅区;住宅小区","poiAddress":"汉林西街北50米","poiBounds":"[[120.075451,43.877375],[120.075305,43.87767],[120.075282,43.877944],[120.077036,43.877988],[120.077138,43.877416],[120.077277,43.877045],[120.076011,43.876933],[120.075915,43.876923],[120.075875,43.877016],[120.075513,43.876959],[120.075451,43.877375]]","poiPcode":"150000","poiPname":"内蒙古自治区","poiCitycode":"0476","poiCityname":"赤峰市","poiAdcode":"150421","poiAdname":"阿鲁科尔沁旗","poiRegion":"内蒙古自治区/赤峰市/阿鲁科尔沁旗"},{"poiId":"B0FFKG0AVB","poiLocation":"120.081773,43.875109","poiLng":"120.081773","poiLat":"43.875109","poiName":"老交通家属楼","poiType":"商务住宅;住宅区;住宅小区","poiAddress":"汉林西街南200米","poiBounds":"null","poiPcode":"150000","poiPname":"内蒙古自治区","poiCitycode":"0476","poiCityname":"赤峰市","poiAdcode":"150421","poiAdname":"阿鲁科尔沁旗","poiRegion":"内蒙古自治区/赤峰市/阿鲁科尔沁旗"},{"poiId":"B01DC0JMWL","poiLocation":"120.092585,43.873060","poiLng":"120.092585","poiLat":"43.873060","poiName":"平安家园(红星路)","poiType":"商务住宅;住宅区;住宅小区","poiAddress":"天元大街与红星路交叉口西北100米","poiBounds":"null","poiPcode":"150000","poiPname":"内蒙古自治区","poiCitycode":"0476","poiCityname":"赤峰市","poiAdcode":"150421","poiAdname":"阿鲁科尔沁旗","poiRegion":"内蒙古自治区/赤峰市/阿鲁科尔沁旗"},{"poiId":"B01DC0I568","poiLocation":"120.098102,43.875515","poiLng":"120.098102","poiLat":"43.875515","poiName":"辉煌小区","poiType":"商务住宅;住宅区;住宅小区","poiAddress":"天山镇胜利路","poiBounds":"[[120.097579,43.875691],[120.097622,43.875476],[120.098099,43.875512],[120.098169,43.875224],[120.098547,43.875265],[120.098445,43.875613],[120.098208,43.875584],[120.098169,43.875757],[120.097579,43.875691]]","poiPcode":"150000","poiPname":"内蒙古自治区","poiCitycode":"0476","poiCityname":"赤峰市","poiAdcode":"150421","poiAdname":"阿鲁科尔沁旗","poiRegion":"内蒙古自治区/赤峰市/阿鲁科尔沁旗"},{"poiId":"B01DC159H2","poiLocation":"120.098147,43.876561","poiLng":"120.098147","poiLat":"43.876561","poiName":"吉祥家园(胜利路)","poiType":"商务住宅;住宅区;住宅小区","poiAddress":"天山路与胜利路交叉口东150米","poiBounds":"[[120.099456,43.876941],[120.099403,43.877212],[120.09932,43.877233],[120.096879,43.876976],[120.096997,43.876553],[120.097541,43.876605],[120.097611,43.876093],[120.09694,43.876006],[120.09697,43.875832],[120.099641,43.87611],[120.099607,43.876297],[120.098633,43.876191],[120.098598,43.876367],[120.098737,43.876381],[120.098732,43.876516],[120.098574,43.87651],[120.098555,43.876694],[120.098687,43.876711],[120.09866,43.87685],[120.099456,43.876941]]","poiPcode":"150000","poiPname":"内蒙古自治区","poiCitycode":"0476","poiCityname":"赤峰市","poiAdcode":"150421","poiAdname":"阿鲁科尔沁旗","poiRegion":"内蒙古自治区/赤峰市/阿鲁科尔沁旗"},{"poiId":"B0FFG0PF6O","poiLocation":"120.094648,43.872590","poiLng":"120.094648","poiLat":"43.872590","poiName":"向阳社区","poiType":"商务住宅;住宅区;住宅小区","poiAddress":"天元大街与红星路交叉口东150米","poiBounds":"null","poiPcode":"150000","poiPname":"内蒙古自治区","poiCitycode":"0476","poiCityname":"赤峰市","poiAdcode":"150421","poiAdname":"阿鲁科尔沁旗","poiRegion":"内蒙古自治区/赤峰市/阿鲁科尔沁旗"},{"poiId":"B01DC0JAK8","poiLocation":"120.087713,43.878273","poiLng":"120.087713","poiLat":"43.878273","poiName":"温馨家园(西市路)","poiType":"商务住宅;住宅区;住宅小区","poiAddress":"汉林路与西市路交叉口西南100米","poiBounds":"null","poiPcode":"150000","poiPname":"内蒙古自治区","poiCitycode":"0476","poiCityname":"赤峰市","poiAdcode":"150421","poiAdname":"阿鲁科尔沁旗","poiRegion":"内蒙古自治区/赤峰市/阿鲁科尔沁旗"},{"poiId":"B0FFH24CHP","poiLocation":"120.096678,43.883187","poiLng":"120.096678","poiLat":"43.883187","poiName":"集安小区","poiType":"商务住宅;住宅区;住宅小区","poiAddress":"前进街与和平巷交叉口西北150米","poiBounds":"[[120.096271,43.883025],[120.096322,43.882844],[120.097406,43.882987],[120.097341,43.883269],[120.097333,43.883321],[120.097258,43.88331],[120.097213,43.883532],[120.095901,43.883356],[120.095965,43.883002],[120.096271,43.883025]]","poiPcode":"150000","poiPname":"内蒙古自治区","poiCitycode":"0476","poiCityname":"赤峰市","poiAdcode":"150421","poiAdname":"阿鲁科尔沁旗","poiRegion":"内蒙古自治区/赤峰市/阿鲁科尔沁旗"},{"poiId":"B0FFH1ZG83","poiLocation":"120.087675,43.882960","poiLng":"120.087675","poiLat":"43.882960","poiName":"天佑家园","poiType":"商务住宅;住宅区;住宅小区","poiAddress":"查布嘎路与西市路交叉口东南100米","poiBounds":"[[120.087617,43.882696],[120.088634,43.882819],[120.088521,43.883424],[120.087483,43.883326],[120.087617,43.882696]]","poiPcode":"150000","poiPname":"内蒙古自治区","poiCitycode":"0476","poiCityname":"赤峰市","poiAdcode":"150421","poiAdname":"阿鲁科尔沁旗","poiRegion":"内蒙古自治区/赤峰市/阿鲁科尔沁旗"},{"poiId":"B0FFH1W7E8","poiLocation":"120.094256,43.875098","poiLng":"120.094256","poiLat":"43.875098","poiName":"和谐家园","poiType":"商务住宅;住宅区;住宅小区","poiAddress":"红星路与胜利路交叉口东150米","poiBounds":"[[120.093735,43.875353],[120.094459,43.875415],[120.094513,43.875156],[120.095347,43.875206],[120.095385,43.875028],[120.093349,43.874825],[120.093311,43.874991],[120.093502,43.875026],[120.093499,43.875084],[120.093738,43.875125],[120.093762,43.875159],[120.093735,43.875353]]","poiPcode":"150000","poiPname":"内蒙古自治区","poiCitycode":"0476","poiCityname":"赤峰市","poiAdcode":"150421","poiAdname":"阿鲁科尔沁旗","poiRegion":"内蒙古自治区/赤峰市/阿鲁科尔沁旗"},{"poiId":"B0FFH1VSB5","poiLocation":"120.100164,43.878943","poiLng":"120.100164","poiLat":"43.878943","poiName":"碧景华庭","poiType":"商务住宅;住宅区;住宅小区","poiAddress":"前进街与汉林东街交叉口东北100米","poiBounds":"[[120.099427,43.878988],[120.099469,43.878762],[120.100591,43.878888],[120.100537,43.879234],[120.0997,43.879155],[120.099735,43.879015],[120.099427,43.878988]]","poiPcode":"150000","poiPname":"内蒙古自治区","poiCitycode":"0476","poiCityname":"赤峰市","poiAdcode":"150421","poiAdname":"阿鲁科尔沁旗","poiRegion":"内蒙古自治区/赤峰市/阿鲁科尔沁旗"},{"poiId":"B0FFH1UWUR","poiLocation":"120.098638,43.884369","poiLng":"120.098638","poiLat":"43.884369","poiName":"众联小区","poiType":"商务住宅;住宅区;住宅小区","poiAddress":"前进街与和平巷交叉口北200米","poiBounds":"[[120.09791,43.884753],[120.098143,43.884016],[120.098385,43.884053],[120.098465,43.883769],[120.099377,43.883879],[120.099299,43.88426],[120.099179,43.884244],[120.098967,43.884977],[120.09799,43.884832],[120.09791,43.884753]]","poiPcode":"150000","poiPname":"内蒙古自治区","poiCitycode":"0476","poiCityname":"赤峰市","poiAdcode":"150421","poiAdname":"阿鲁科尔沁旗","poiRegion":"内蒙古自治区/赤峰市/阿鲁科尔沁旗"},{"poiId":"B0FFHBLHLI","poiLocation":"120.094378,43.876163","poiLng":"120.094378","poiLat":"43.876163","poiName":"天山宾馆小区","poiType":"商务住宅;住宅区;住宅小区","poiAddress":"益民商业步行街与胜利巷交叉口南100米","poiBounds":"null","poiPcode":"150000","poiPname":"内蒙古自治区","poiCitycode":"0476","poiCityname":"赤峰市","poiAdcode":"150421","poiAdname":"阿鲁科尔沁旗","poiRegion":"内蒙古自治区/赤峰市/阿鲁科尔沁旗"},{"poiId":"B0FFHBLEUT","poiLocation":"120.053711,43.873628","poiLng":"120.053711","poiLat":"43.873628","poiName":"学院华庭","poiType":"商务住宅;住宅区;住宅小区","poiAddress":"汉林西街西100米","poiBounds":"[[120.052986,43.873282],[120.053119,43.873308],[120.053355,43.87334],[120.053603,43.873391],[120.054494,43.873488],[120.054478,43.873939],[120.054106,43.873925],[120.053602,43.873854],[120.052883,43.873727],[120.052986,43.873282]]","poiPcode":"150000","poiPname":"内蒙古自治区","poiCitycode":"0476","poiCityname":"赤峰市","poiAdcode":"150421","poiAdname":"阿鲁科尔沁旗","poiRegion":"内蒙古自治区/赤峰市/阿鲁科尔沁旗"},{"poiId":"B0FFHB8X9D","poiLocation":"120.090786,43.880068","poiLng":"120.090786","poiLat":"43.880068","poiName":"阿旗报社家属楼","poiType":"商务住宅;住宅区;住宅小区","poiAddress":"红旗路与和平路交汇处西路南","poiBounds":"null","poiPcode":"150000","poiPname":"内蒙古自治区","poiCitycode":"0476","poiCityname":"赤峰市","poiAdcode":"150421","poiAdname":"阿鲁科尔沁旗","poiRegion":"内蒙古自治区/赤峰市/阿鲁科尔沁旗"},{"poiId":"B0FFH1UE58","poiLocation":"120.073047,43.876984","poiLng":"120.073047","poiLat":"43.876984","poiName":"怡园小区","poiType":"商务住宅;住宅区;住宅小区","poiAddress":"汉林西街与303国道交叉口西北100米","poiBounds":"[[120.072414,43.877502],[120.072449,43.877207],[120.072669,43.876396],[120.073699,43.876483],[120.073452,43.877551],[120.072414,43.877502]]","poiPcode":"150000","poiPname":"内蒙古自治区","poiCitycode":"0476","poiCityname":"赤峰市","poiAdcode":"150421","poiAdname":"阿鲁科尔沁旗","poiRegion":"内蒙古自治区/赤峰市/阿鲁科尔沁旗"},{"poiId":"B0FFH1SUA5","poiLocation":"120.097142,43.880413","poiLng":"120.097142","poiLat":"43.880413","poiName":"逸安小区","poiType":"商务住宅;住宅区;住宅小区","poiAddress":"和平路与天山路交叉口东150米","poiBounds":"[[120.096125,43.88079],[120.096307,43.879835],[120.098182,43.880048],[120.097962,43.880986],[120.096125,43.88079]]","poiPcode":"150000","poiPname":"内蒙古自治区","poiCitycode":"0476","poiCityname":"赤峰市","poiAdcode":"150421","poiAdname":"阿鲁科尔沁旗","poiRegion":"内蒙古自治区/赤峰市/阿鲁科尔沁旗"},{"poiId":"B0FFH1HJKR","poiLocation":"120.082044,43.873970","poiLng":"120.082044","poiLat":"43.873970","poiName":"丽水欣居","poiType":"商务住宅;住宅区;住宅小区","poiAddress":"滨河西巷2","poiBounds":"[[120.081676,43.875191],[120.082255,43.875276],[120.082453,43.875241],[120.082587,43.875017],[120.08284,43.874183],[120.082963,43.874189],[120.083266,43.873941],[120.083301,43.873798],[120.083089,43.873777],[120.083121,43.873555],[120.082056,43.873425],[120.081676,43.875191]]","poiPcode":"150000","poiPname":"内蒙古自治区","poiCitycode":"0476","poiCityname":"赤峰市","poiAdcode":"150421","poiAdname":"阿鲁科尔沁旗","poiRegion":"内蒙古自治区/赤峰市/阿鲁科尔沁旗"},{"poiId":"B0FFH18WDQ","poiLocation":"120.074526,43.874241","poiLng":"120.074526","poiLat":"43.874241","poiName":"房产小区","poiType":"商务住宅;住宅区;住宅小区","poiAddress":"G303(汉林西街)","poiBounds":"[[120.074412,43.874738],[120.074542,43.874164],[120.075522,43.874254],[120.075508,43.874345],[120.075248,43.874315],[120.075156,43.874842],[120.074412,43.874738]]","poiPcode":"150000","poiPname":"内蒙古自治区","poiCitycode":"0476","poiCityname":"赤峰市","poiAdcode":"150421","poiAdname":"阿鲁科尔沁旗","poiRegion":"内蒙古自治区/赤峰市/阿鲁科尔沁旗"},{"poiId":"B0FFGZTJMJ","poiLocation":"120.068144,43.876210","poiLng":"120.068144","poiLat":"43.876210","poiName":"阿旗棚户区西片","poiType":"商务住宅;住宅区;住宅小区","poiAddress":"汉林西街与集通路交叉口西北200米","poiBounds":"null","poiPcode":"150000","poiPname":"内蒙古自治区","poiCitycode":"0476","poiCityname":"赤峰市","poiAdcode":"150421","poiAdname":"阿鲁科尔沁旗","poiRegion":"内蒙古自治区/赤峰市/阿鲁科尔沁旗"},{"poiId":"B0FFGZE7DZ","poiLocation":"120.058481,43.868321","poiLng":"120.058481","poiLat":"43.868321","poiName":"峰景新城c区","poiType":"商务住宅;住宅区;住宅小区","poiAddress":"天元大街","poiBounds":"[[120.055736,43.869305],[120.055736,43.868346],[120.055736,43.867598],[120.055723,43.86729],[120.05575,43.867255],[120.055827,43.867242],[120.057193,43.867261],[120.058298,43.867267],[120.059982,43.867273],[120.060666,43.867283],[120.060953,43.86731],[120.061109,43.867364],[120.061141,43.867383],[120.061219,43.86743],[120.061235,43.86846],[120.061227,43.869195],[120.061219,43.869394],[120.05837,43.869375],[120.055967,43.869344],[120.055972,43.869317],[120.055736,43.869305]]","poiPcode":"150000","poiPname":"内蒙古自治区","poiCitycode":"0476","poiCityname":"赤峰市","poiAdcode":"150421","poiAdname":"阿鲁科尔沁旗","poiRegion":"内蒙古自治区/赤峰市/阿鲁科尔沁旗"},{"poiId":"B01DC0J03C","poiLocation":"120.066158,43.873889","poiLng":"120.066158","poiLat":"43.873889","poiName":"教育家园(罕乌拉东路)","poiType":"商务住宅;住宅区;住宅小区","poiAddress":"汉林西街与罕乌拉东路交叉口西南150米","poiBounds":"[[120.065201,43.874375],[120.067006,43.874567],[120.06706,43.874553],[120.067081,43.873339],[120.067038,43.873298],[120.065174,43.873316],[120.065201,43.874375]]","poiPcode":"150000","poiPname":"内蒙古自治区","poiCitycode":"0476","poiCityname":"赤峰市","poiAdcode":"150421","poiAdname":"阿鲁科尔沁旗","poiRegion":"内蒙古自治区/赤峰市/阿鲁科尔沁旗"},{"poiId":"B0FFHUVE4D","poiLocation":"120.064929,43.864232","poiLng":"120.064929","poiLat":"43.864232","poiName":"沁园·西区","poiType":"商务住宅;住宅区;住宅小区","poiAddress":"鲁宝线南50米","poiBounds":"[[120.065677,43.864775],[120.06399,43.864116],[120.064159,43.863826],[120.065747,43.864025],[120.065782,43.864741],[120.065677,43.864775]]","poiPcode":"150000","poiPname":"内蒙古自治区","poiCitycode":"0476","poiCityname":"赤峰市","poiAdcode":"150421","poiAdname":"阿鲁科尔沁旗","poiRegion":"内蒙古自治区/赤峰市/阿鲁科尔沁旗"},{"poiId":"B0FFHOG8QX","poiLocation":"120.085073,43.875550","poiLng":"120.085073","poiLat":"43.875550","poiName":"碧水佳苑","poiType":"商务住宅;住宅区;住宅小区","poiAddress":"汉林西街南200米","poiBounds":"[[120.083845,43.876377],[120.08566,43.876607],[120.085942,43.875269],[120.085376,43.875189],[120.083917,43.876133],[120.083845,43.876377]]","poiPcode":"150000","poiPname":"内蒙古自治区","poiCitycode":"0476","poiCityname":"赤峰市","poiAdcode":"150421","poiAdname":"阿鲁科尔沁旗","poiRegion":"内蒙古自治区/赤峰市/阿鲁科尔沁旗"},{"poiId":"B0FFHNNEYT","poiLocation":"120.075274,43.876373","poiLng":"120.075274","poiLat":"43.876373","poiName":"平安家园","poiType":"商务住宅;住宅区;住宅小区","poiAddress":"汉林西街与303国道交叉口东100米","poiBounds":"[[120.074475,43.876836],[120.074697,43.87687],[120.074717,43.876836],[120.075863,43.877002],[120.076142,43.875952],[120.074691,43.875746],[120.07443,43.876654],[120.074508,43.87667],[120.074475,43.876836]]","poiPcode":"150000","poiPname":"内蒙古自治区","poiCitycode":"0476","poiCityname":"赤峰市","poiAdcode":"150421","poiAdname":"阿鲁科尔沁旗","poiRegion":"内蒙古自治区/赤峰市/阿鲁科尔沁旗"},{"poiId":"B01DC0JD5C","poiLocation":"120.062272,43.873655","poiLng":"120.062272","poiLat":"43.873655","poiName":"国税家园","poiType":"商务住宅;住宅区;住宅小区","poiAddress":"阿旗新区","poiBounds":"[[120.062226,43.873991],[120.061466,43.8739],[120.061476,43.873313],[120.063016,43.873321],[120.063005,43.874074],[120.062226,43.873991]]","poiPcode":"150000","poiPname":"内蒙古自治区","poiCitycode":"0476","poiCityname":"赤峰市","poiAdcode":"150421","poiAdname":"阿鲁科尔沁旗","poiRegion":"内蒙古自治区/赤峰市/阿鲁科尔沁旗"},{"poiId":"B0FFIBZHTY","poiLocation":"120.063689,43.866622","poiLng":"120.063689","poiLat":"43.866622","poiName":"益民小区","poiType":"商务住宅;住宅区;住宅小区","poiAddress":"罕乌拉西路西50米","poiBounds":"[[120.061516,43.867974],[120.061543,43.867602],[120.06186,43.866396],[120.064086,43.866373],[120.064054,43.867297],[120.062986,43.867343],[120.063002,43.867989],[120.061516,43.867974]]","poiPcode":"150000","poiPname":"内蒙古自治区","poiCitycode":"0476","poiCityname":"赤峰市","poiAdcode":"150421","poiAdname":"阿鲁科尔沁旗","poiRegion":"内蒙古自治区/赤峰市/阿鲁科尔沁旗"},{"poiId":"B0FFIJOE7B","poiLocation":"120.102868,43.877028","poiLng":"120.102868","poiLat":"43.877028","poiName":"老交警队家属楼","poiType":"商务住宅;住宅区;住宅小区","poiAddress":"欧木伦路与胜利巷交叉口南100米","poiBounds":"[[120.102195,43.877012],[120.102879,43.877072],[120.102911,43.876927],[120.102222,43.876862],[120.102195,43.877012]]","poiPcode":"150000","poiPname":"内蒙古自治区","poiCitycode":"0476","poiCityname":"赤峰市","poiAdcode":"150421","poiAdname":"阿鲁科尔沁旗","poiRegion":"内蒙古自治区/赤峰市/阿鲁科尔沁旗"},{"poiId":"B0FFIBMT41","poiLocation":"120.095220,43.886102","poiLng":"120.095220","poiLat":"43.886102","poiName":"粮食仓库小区","poiType":"商务住宅;住宅区;住宅小区","poiAddress":"查布嘎路与查布杆路交叉口东150米","poiBounds":"null","poiPcode":"150000","poiPname":"内蒙古自治区","poiCitycode":"0476","poiCityname":"赤峰市","poiAdcode":"150421","poiAdname":"阿鲁科尔沁旗","poiRegion":"内蒙古自治区/赤峰市/阿鲁科尔沁旗"},{"poiId":"B0FFI76KEZ","poiLocation":"120.096230,43.868612","poiLng":"120.096230","poiLat":"43.868612","poiName":"海天家园","poiType":"商务住宅;住宅区;住宅小区","poiAddress":"鲁宝线附近","poiBounds":"null","poiPcode":"150000","poiPname":"内蒙古自治区","poiCitycode":"0476","poiCityname":"赤峰市","poiAdcode":"150421","poiAdname":"阿鲁科尔沁旗","poiRegion":"内蒙古自治区/赤峰市/阿鲁科尔沁旗"},{"poiId":"B0FFJ01A4C","poiLocation":"120.091440,43.884649","poiLng":"120.091440","poiLat":"43.884649","poiName":"家和园","poiType":"商务住宅;住宅区;住宅小区","poiAddress":"查布嘎路与红星路交叉口东100米","poiBounds":"null","poiPcode":"150000","poiPname":"内蒙古自治区","poiCitycode":"0476","poiCityname":"赤峰市","poiAdcode":"150421","poiAdname":"阿鲁科尔沁旗","poiRegion":"内蒙古自治区/赤峰市/阿鲁科尔沁旗"},{"poiId":"B0FFJ04LFQ","poiLocation":"120.064534,43.867990","poiLng":"120.064534","poiLat":"43.867990","poiName":"中央领郡","poiType":"商务住宅;住宅区;住宅小区","poiAddress":"罕乌拉西路东50米","poiBounds":"null","poiPcode":"150000","poiPname":"内蒙古自治区","poiCitycode":"0476","poiCityname":"赤峰市","poiAdcode":"150421","poiAdname":"阿鲁科尔沁旗","poiRegion":"内蒙古自治区/赤峰市/阿鲁科尔沁旗"}]