[{"poiId":"B0FFF7YV72","poiLocation":"119.909471,42.287619","poiLng":"119.909471","poiLat":"42.287619","poiName":"武安小区15号楼","poiType":"地名地址信息;门牌信息;楼栋号","poiAddress":"惠宁路北150米","poiBounds":"null","poiPcode":"150000","poiPname":"内蒙古自治区","poiCitycode":"0476","poiCityname":"赤峰市","poiAdcode":"150430","poiAdname":"敖汉旗","poiRegion":"内蒙古自治区/赤峰市/敖汉旗","poiVillage":"B01DC0I48P"},{"poiId":"B0FFF7T98U","poiLocation":"119.909406,42.289559","poiLng":"119.909406","poiLat":"42.289559","poiName":"武安小区1号楼","poiType":"地名地址信息;门牌信息;楼栋号","poiAddress":"新东街与新惠路交叉口东150米","poiBounds":"null","poiPcode":"150000","poiPname":"内蒙古自治区","poiCitycode":"0476","poiCityname":"赤峰市","poiAdcode":"150430","poiAdname":"敖汉旗","poiRegion":"内蒙古自治区/赤峰市/敖汉旗","poiVillage":"B01DC0I48P"},{"poiId":"B0FFF7HC0I","poiLocation":"119.905017,42.283473","poiLng":"119.905017","poiLat":"42.283473","poiName":"新化小区10号楼","poiType":"地名地址信息;门牌信息;楼栋号","poiAddress":"振兴路与新中街交叉口西南150米","poiBounds":"null","poiPcode":"150000","poiPname":"内蒙古自治区","poiCitycode":"0476","poiCityname":"赤峰市","poiAdcode":"150430","poiAdname":"敖汉旗","poiRegion":"内蒙古自治区/赤峰市/敖汉旗","poiVillage":"B01DC0I70M"},{"poiId":"B0FFF0LNY6","poiLocation":"119.904845,42.282873","poiLng":"119.904845","poiLat":"42.282873","poiName":"新化小区6号楼","poiType":"地名地址信息;门牌信息;楼栋号","poiAddress":"新中街与新化路交叉口北100米","poiBounds":"null","poiPcode":"150000","poiPname":"内蒙古自治区","poiCitycode":"0476","poiCityname":"赤峰市","poiAdcode":"150430","poiAdname":"敖汉旗","poiRegion":"内蒙古自治区/赤峰市/敖汉旗","poiVillage":"B01DC0I70M"},{"poiId":"B0FFHLTATH","poiLocation":"119.915991,42.275095","poiLng":"119.915991","poiLat":"42.275095","poiName":"南苑公馆4号楼","poiType":"地名地址信息;门牌信息;楼栋号","poiAddress":"敖汉旗","poiBounds":"null","poiPcode":"150000","poiPname":"内蒙古自治区","poiCitycode":"0476","poiCityname":"赤峰市","poiAdcode":"150430","poiAdname":"敖汉旗","poiRegion":"内蒙古自治区/赤峰市/敖汉旗","poiVillage":"B0FFH1FXGT"},{"poiId":"B0FFHLKDMI","poiLocation":"119.916249,42.283599","poiLng":"119.916249","poiLat":"42.283599","poiName":"银河金座40号楼","poiType":"地名地址信息;门牌信息;楼栋号","poiAddress":"敖汉旗","poiBounds":"null","poiPcode":"150000","poiPname":"内蒙古自治区","poiCitycode":"0476","poiCityname":"赤峰市","poiAdcode":"150430","poiAdname":"敖汉旗","poiRegion":"内蒙古自治区/赤峰市/敖汉旗","poiVillage":"B0FFFZ69CF"},{"poiId":"B0FFGU14JO","poiLocation":"119.918780,42.286740","poiLng":"119.918780","poiLat":"42.286740","poiName":"理想家园7号楼","poiType":"地名地址信息;门牌信息;楼栋号","poiAddress":"理想家园(惠州街东)","poiBounds":"null","poiPcode":"150000","poiPname":"内蒙古自治区","poiCitycode":"0476","poiCityname":"赤峰市","poiAdcode":"150430","poiAdname":"敖汉旗","poiRegion":"内蒙古自治区/赤峰市/敖汉旗","poiVillage":"B01DC0I4Z0"},{"poiId":"B0FFGTZW96","poiLocation":"119.915760,42.281579","poiLng":"119.915760","poiLat":"42.281579","poiName":"银河花都18号楼","poiType":"地名地址信息;门牌信息;楼栋号","poiAddress":"银河花都(新化路北)","poiBounds":"null","poiPcode":"150000","poiPname":"内蒙古自治区","poiCitycode":"0476","poiCityname":"赤峰市","poiAdcode":"150430","poiAdname":"敖汉旗","poiRegion":"内蒙古自治区/赤峰市/敖汉旗","poiVillage":"B0FFFGYR0Y"},{"poiId":"B0FFGTZJAV","poiLocation":"119.916128,42.285645","poiLng":"119.916128","poiLat":"42.285645","poiName":"银河花城20号楼","poiType":"地名地址信息;门牌信息;楼栋号","poiAddress":"敖汉旗","poiBounds":"null","poiPcode":"150000","poiPname":"内蒙古自治区","poiCitycode":"0476","poiCityname":"赤峰市","poiAdcode":"150430","poiAdname":"敖汉旗","poiRegion":"内蒙古自治区/赤峰市/敖汉旗","poiVillage":"B01DC0I4YZ"},{"poiId":"B0FFGTVC0Y","poiLocation":"119.918710,42.286220","poiLng":"119.918710","poiLat":"42.286220","poiName":"理想家园11号楼","poiType":"地名地址信息;门牌信息;楼栋号","poiAddress":"理想家园(惠州街东)","poiBounds":"null","poiPcode":"150000","poiPname":"内蒙古自治区","poiCitycode":"0476","poiCityname":"赤峰市","poiAdcode":"150430","poiAdname":"敖汉旗","poiRegion":"内蒙古自治区/赤峰市/敖汉旗","poiVillage":"B01DC0I4Z0"},{"poiId":"B0FFGTUCGI","poiLocation":"119.918730,42.286359","poiLng":"119.918730","poiLat":"42.286359","poiName":"理想家园10号楼","poiType":"地名地址信息;门牌信息;楼栋号","poiAddress":"新惠镇新惠路理想家园","poiBounds":"null","poiPcode":"150000","poiPname":"内蒙古自治区","poiCitycode":"0476","poiCityname":"赤峰市","poiAdcode":"150430","poiAdname":"敖汉旗","poiRegion":"内蒙古自治区/赤峰市/敖汉旗","poiVillage":"B01DC0I4Z0"},{"poiId":"B0FFGTPOI5","poiLocation":"119.918696,42.283883","poiLng":"119.918696","poiLat":"42.283883","poiName":"兴隆佳苑13号楼","poiType":"地名地址信息;门牌信息;楼栋号","poiAddress":"敖汉旗","poiBounds":"null","poiPcode":"150000","poiPname":"内蒙古自治区","poiCitycode":"0476","poiCityname":"赤峰市","poiAdcode":"150430","poiAdname":"敖汉旗","poiRegion":"内蒙古自治区/赤峰市/敖汉旗","poiVillage":"B0FFFGZVBK"},{"poiId":"B0FFGTOMH1","poiLocation":"119.918752,42.286560","poiLng":"119.918752","poiLat":"42.286560","poiName":"理想家园9号楼","poiType":"地名地址信息;门牌信息;楼栋号","poiAddress":"理想家园(惠州街东)","poiBounds":"null","poiPcode":"150000","poiPname":"内蒙古自治区","poiCitycode":"0476","poiCityname":"赤峰市","poiAdcode":"150430","poiAdname":"敖汉旗","poiRegion":"内蒙古自治区/赤峰市/敖汉旗","poiVillage":"B01DC0I4Z0"},{"poiId":"B0FFGTOEPI","poiLocation":"119.918752,42.286532","poiLng":"119.918752","poiLat":"42.286532","poiName":"理想家园8号楼","poiType":"地名地址信息;门牌信息;楼栋号","poiAddress":"理想家园(惠州街东)","poiBounds":"null","poiPcode":"150000","poiPname":"内蒙古自治区","poiCitycode":"0476","poiCityname":"赤峰市","poiAdcode":"150430","poiAdname":"敖汉旗","poiRegion":"内蒙古自治区/赤峰市/敖汉旗","poiVillage":"B01DC0I4Z0"},{"poiId":"B0FFGAPDTA","poiLocation":"119.911597,42.286407","poiLng":"119.911597","poiLat":"42.286407","poiName":"武安小区24号楼","poiType":"地名地址信息;门牌信息;楼栋号","poiAddress":"惠宁路与滨河街交叉口西北50米","poiBounds":"null","poiPcode":"150000","poiPname":"内蒙古自治区","poiCitycode":"0476","poiCityname":"赤峰市","poiAdcode":"150430","poiAdname":"敖汉旗","poiRegion":"内蒙古自治区/赤峰市/敖汉旗","poiVillage":"B01DC0I48P"},{"poiId":"B0FFFGZGQL","poiLocation":"119.912993,42.291184","poiLng":"119.912993","poiLat":"42.291184","poiName":"滨河花园16号楼","poiType":"地名地址信息;门牌信息;楼栋号","poiAddress":"敖汉旗","poiBounds":"null","poiPcode":"150000","poiPname":"内蒙古自治区","poiCitycode":"0476","poiCityname":"赤峰市","poiAdcode":"150430","poiAdname":"敖汉旗","poiRegion":"内蒙古自治区/赤峰市/敖汉旗","poiVillage":"B0FFIULVDI"},{"poiId":"B0FFF9CZ5V","poiLocation":"119.916933,42.285527","poiLng":"119.916933","poiLat":"42.285527","poiName":"银河花城22号楼","poiType":"地名地址信息;门牌信息;楼栋号","poiAddress":"敖汉旗","poiBounds":"null","poiPcode":"150000","poiPname":"内蒙古自治区","poiCitycode":"0476","poiCityname":"赤峰市","poiAdcode":"150430","poiAdname":"敖汉旗","poiRegion":"内蒙古自治区/赤峰市/敖汉旗","poiVillage":"B01DC0I4YZ"},{"poiId":"B0FFF9CZ5S","poiLocation":"119.915251,42.284191","poiLng":"119.915251","poiLat":"42.284191","poiName":"银河金座34号楼","poiType":"地名地址信息;门牌信息;楼栋号","poiAddress":"新惠镇新化路银河金座","poiBounds":"null","poiPcode":"150000","poiPname":"内蒙古自治区","poiCitycode":"0476","poiCityname":"赤峰市","poiAdcode":"150430","poiAdname":"敖汉旗","poiRegion":"内蒙古自治区/赤峰市/敖汉旗","poiVillage":"B0FFFZ69CF"},{"poiId":"B0FFF9CZ5R","poiLocation":"119.915564,42.284159","poiLng":"119.915564","poiLat":"42.284159","poiName":"银河金座35号楼","poiType":"地名地址信息;门牌信息;楼栋号","poiAddress":"银河金座(振兴路北50米)","poiBounds":"null","poiPcode":"150000","poiPname":"内蒙古自治区","poiCitycode":"0476","poiCityname":"赤峰市","poiAdcode":"150430","poiAdname":"敖汉旗","poiRegion":"内蒙古自治区/赤峰市/敖汉旗","poiVillage":"B0FFFZ69CF"},{"poiId":"B0FFF9CZ5O","poiLocation":"119.916315,42.284091","poiLng":"119.916315","poiLat":"42.284091","poiName":"银河金座36号楼","poiType":"地名地址信息;门牌信息;楼栋号","poiAddress":"银河金座(振兴路北50米)","poiBounds":"null","poiPcode":"150000","poiPname":"内蒙古自治区","poiCitycode":"0476","poiCityname":"赤峰市","poiAdcode":"150430","poiAdname":"敖汉旗","poiRegion":"内蒙古自治区/赤峰市/敖汉旗","poiVillage":"B0FFFZ69CF"},{"poiId":"B0FFHH2XB1","poiLocation":"119.902456,42.279501","poiLng":"119.902456","poiLat":"42.279501","poiName":"教育小区5号楼","poiType":"地名地址信息;门牌信息;楼栋号","poiAddress":"教育小区5号楼(新西街东)","poiBounds":"null","poiPcode":"150000","poiPname":"内蒙古自治区","poiCitycode":"0476","poiCityname":"赤峰市","poiAdcode":"150430","poiAdname":"敖汉旗","poiRegion":"内蒙古自治区/赤峰市/敖汉旗","poiVillage":""},{"poiId":"B0FFFGZWKX","poiLocation":"119.896919,42.293972","poiLng":"119.896919","poiLat":"42.293972","poiName":"新建家园1号楼","poiType":"地名地址信息;门牌信息;楼栋号","poiAddress":"新建街","poiBounds":"null","poiPcode":"150000","poiPname":"内蒙古自治区","poiCitycode":"0476","poiCityname":"赤峰市","poiAdcode":"150430","poiAdname":"敖汉旗","poiRegion":"内蒙古自治区/赤峰市/敖汉旗","poiVillage":"B0FFFGZWL6"},{"poiId":"B0FFGTZIVJ","poiLocation":"119.904682,42.283161","poiLng":"119.904682","poiLat":"42.283161","poiName":"新化小区9号楼","poiType":"地名地址信息;门牌信息;楼栋号","poiAddress":"敖汉旗","poiBounds":"null","poiPcode":"150000","poiPname":"内蒙古自治区","poiCitycode":"0476","poiCityname":"赤峰市","poiAdcode":"150430","poiAdname":"敖汉旗","poiRegion":"内蒙古自治区/赤峰市/敖汉旗","poiVillage":"B01DC0I70M"},{"poiId":"B0FFFGZGQY","poiLocation":"119.910083,42.291442","poiLng":"119.910083","poiLat":"42.291442","poiName":"滨河花园1号楼","poiType":"地名地址信息;门牌信息;楼栋号","poiAddress":"敖汉旗","poiBounds":"null","poiPcode":"150000","poiPname":"内蒙古自治区","poiCitycode":"0476","poiCityname":"赤峰市","poiAdcode":"150430","poiAdname":"敖汉旗","poiRegion":"内蒙古自治区/赤峰市/敖汉旗","poiVillage":"B0FFIULVDI"},{"poiId":"B0FFF7HC0J","poiLocation":"119.904372,42.283201","poiLng":"119.904372","poiLat":"42.283201","poiName":"新化小区5号楼","poiType":"地名地址信息;门牌信息;楼栋号","poiAddress":"新中街与新化路交叉口西北150米","poiBounds":"null","poiPcode":"150000","poiPname":"内蒙古自治区","poiCitycode":"0476","poiCityname":"赤峰市","poiAdcode":"150430","poiAdname":"敖汉旗","poiRegion":"内蒙古自治区/赤峰市/敖汉旗","poiVillage":"B01DC0I70M"},{"poiId":"B0FFFH14DE","poiLocation":"119.916562,42.279693","poiLng":"119.916562","poiLat":"42.279693","poiName":"丽水河畔9号楼","poiType":"地名地址信息;门牌信息;楼栋号","poiAddress":"河畔9","poiBounds":"null","poiPcode":"150000","poiPname":"内蒙古自治区","poiCitycode":"0476","poiCityname":"赤峰市","poiAdcode":"150430","poiAdname":"敖汉旗","poiRegion":"内蒙古自治区/赤峰市/敖汉旗","poiVillage":"B0FFGDBD7C"},{"poiId":"B0FFF0LNWC","poiLocation":"119.898712,42.272190","poiLng":"119.898712","poiLat":"42.272190","poiName":"惠安小区3号","poiType":"地名地址信息;门牌信息;楼栋号","poiAddress":"惠安小区(箭桥路北)","poiBounds":"null","poiPcode":"150000","poiPname":"内蒙古自治区","poiCitycode":"0476","poiCityname":"赤峰市","poiAdcode":"150430","poiAdname":"敖汉旗","poiRegion":"内蒙古自治区/赤峰市/敖汉旗","poiVillage":"B0FFG0FTLH"},{"poiId":"B0FFF9FQGS","poiLocation":"119.909905,42.289194","poiLng":"119.909905","poiLat":"42.289194","poiName":"武安小区4号楼","poiType":"地名地址信息;门牌信息;楼栋号","poiAddress":"新惠路南100米","poiBounds":"null","poiPcode":"150000","poiPname":"内蒙古自治区","poiCitycode":"0476","poiCityname":"赤峰市","poiAdcode":"150430","poiAdname":"敖汉旗","poiRegion":"内蒙古自治区/赤峰市/敖汉旗","poiVillage":"B01DC0I48P"},{"poiId":"B0FFF9CZ5M","poiLocation":"119.910624,42.282033","poiLng":"119.910624","poiLat":"42.282033","poiName":"兴宝家园1号楼","poiType":"地名地址信息;门牌信息;楼栋号","poiAddress":"兴宝家园(滨河街西)","poiBounds":"null","poiPcode":"150000","poiPname":"内蒙古自治区","poiCitycode":"0476","poiCityname":"赤峰市","poiAdcode":"150430","poiAdname":"敖汉旗","poiRegion":"内蒙古自治区/赤峰市/敖汉旗","poiVillage":"B01DC0I48M"},{"poiId":"B0FFF9CZ5G","poiLocation":"119.916546,42.281689","poiLng":"119.916546","poiLat":"42.281689","poiName":"银河花都17号楼","poiType":"地名地址信息;门牌信息;楼栋号","poiAddress":"新惠镇新化路银河花都","poiBounds":"null","poiPcode":"150000","poiPname":"内蒙古自治区","poiCitycode":"0476","poiCityname":"赤峰市","poiAdcode":"150430","poiAdname":"敖汉旗","poiRegion":"内蒙古自治区/赤峰市/敖汉旗","poiVillage":"B0FFFGYR0Y"},{"poiId":"B0FFF9CZ5F","poiLocation":"119.916798,42.283126","poiLng":"119.916798","poiLat":"42.283126","poiName":"银河花都3号楼","poiType":"地名地址信息;门牌信息;楼栋号","poiAddress":"新惠镇新化路银河花都","poiBounds":"null","poiPcode":"150000","poiPname":"内蒙古自治区","poiCitycode":"0476","poiCityname":"赤峰市","poiAdcode":"150430","poiAdname":"敖汉旗","poiRegion":"内蒙古自治区/赤峰市/敖汉旗","poiVillage":"B0FFFGYR0Y"},{"poiId":"B0FFF9CZ5E","poiLocation":"119.916599,42.282070","poiLng":"119.916599","poiLat":"42.282070","poiName":"银河花都13号楼","poiType":"地名地址信息;门牌信息;楼栋号","poiAddress":"银河花都(惠州街西)","poiBounds":"null","poiPcode":"150000","poiPname":"内蒙古自治区","poiCitycode":"0476","poiCityname":"赤峰市","poiAdcode":"150430","poiAdname":"敖汉旗","poiRegion":"内蒙古自治区/赤峰市/敖汉旗","poiVillage":"B0FFFGYR0Y"},{"poiId":"B0FFF9CZ5C","poiLocation":"119.916648,42.282423","poiLng":"119.916648","poiLat":"42.282423","poiName":"银河花都9号楼","poiType":"地名地址信息;门牌信息;楼栋号","poiAddress":"银河花都(惠州街西)","poiBounds":"null","poiPcode":"150000","poiPname":"内蒙古自治区","poiCitycode":"0476","poiCityname":"赤峰市","poiAdcode":"150430","poiAdname":"敖汉旗","poiRegion":"内蒙古自治区/赤峰市/敖汉旗","poiVillage":"B0FFFGYR0Y"},{"poiId":"B0FFF9CZ5A","poiLocation":"119.915972,42.282812","poiLng":"119.915972","poiLat":"42.282812","poiName":"银河花都6号楼","poiType":"地名地址信息;门牌信息;楼栋号","poiAddress":"银河花都(振兴路南)","poiBounds":"null","poiPcode":"150000","poiPname":"内蒙古自治区","poiCitycode":"0476","poiCityname":"赤峰市","poiAdcode":"150430","poiAdname":"敖汉旗","poiRegion":"内蒙古自治区/赤峰市/敖汉旗","poiVillage":"B0FFFGYR0Y"},{"poiId":"B0FFF9CZ58","poiLocation":"119.915806,42.281768","poiLng":"119.915806","poiLat":"42.281768","poiName":"银河花都16号楼","poiType":"地名地址信息;门牌信息;楼栋号","poiAddress":"新惠镇新化路银河花都","poiBounds":"null","poiPcode":"150000","poiPname":"内蒙古自治区","poiCitycode":"0476","poiCityname":"赤峰市","poiAdcode":"150430","poiAdname":"敖汉旗","poiRegion":"内蒙古自治区/赤峰市/敖汉旗","poiVillage":"B0FFFGYR0Y"},{"poiId":"B0FFF9CZ57","poiLocation":"119.915098,42.281824","poiLng":"119.915098","poiLat":"42.281824","poiName":"银河花都15号楼","poiType":"地名地址信息;门牌信息;楼栋号","poiAddress":"敖汉旗","poiBounds":"null","poiPcode":"150000","poiPname":"内蒙古自治区","poiCitycode":"0476","poiCityname":"赤峰市","poiAdcode":"150430","poiAdname":"敖汉旗","poiRegion":"内蒙古自治区/赤峰市/敖汉旗","poiVillage":"B0FFFGYR0Y"},{"poiId":"B0FFF9CZ53","poiLocation":"119.915183,42.282193","poiLng":"119.915183","poiLat":"42.282193","poiName":"银河花都11号楼","poiType":"地名地址信息;门牌信息;楼栋号","poiAddress":"银河花都(银河街东)","poiBounds":"null","poiPcode":"150000","poiPname":"内蒙古自治区","poiCitycode":"0476","poiCityname":"赤峰市","poiAdcode":"150430","poiAdname":"敖汉旗","poiRegion":"内蒙古自治区/赤峰市/敖汉旗","poiVillage":"B0FFFGYR0Y"},{"poiId":"B0FFF9CZ52","poiLocation":"119.915859,42.282122","poiLng":"119.915859","poiLat":"42.282122","poiName":"银河花都12号楼","poiType":"地名地址信息;门牌信息;楼栋号","poiAddress":"银河花都(惠州街西)","poiBounds":"null","poiPcode":"150000","poiPname":"内蒙古自治区","poiCitycode":"0476","poiCityname":"赤峰市","poiAdcode":"150430","poiAdname":"敖汉旗","poiRegion":"内蒙古自治区/赤峰市/敖汉旗","poiVillage":"B0FFFGYR0Y"},{"poiId":"B0FFF9CZ50","poiLocation":"119.915328,42.282550","poiLng":"119.915328","poiLat":"42.282550","poiName":"银河花都8号楼","poiType":"地名地址信息;门牌信息;楼栋号","poiAddress":"银河花都(银河街东)","poiBounds":"null","poiPcode":"150000","poiPname":"内蒙古自治区","poiCitycode":"0476","poiCityname":"赤峰市","poiAdcode":"150430","poiAdname":"敖汉旗","poiRegion":"内蒙古自治区/赤峰市/敖汉旗","poiVillage":"B0FFFGYR0Y"},{"poiId":"B0FFF9CZ4Z","poiLocation":"119.914824,42.282971","poiLng":"119.914824","poiLat":"42.282971","poiName":"银河花都4号楼","poiType":"地名地址信息;门牌信息;楼栋号","poiAddress":"银河花都(银河街东)","poiBounds":"null","poiPcode":"150000","poiPname":"内蒙古自治区","poiCitycode":"0476","poiCityname":"赤峰市","poiAdcode":"150430","poiAdname":"敖汉旗","poiRegion":"内蒙古自治区/赤峰市/敖汉旗","poiVillage":"B0FFFGYR0Y"},{"poiId":"B0FFF77ZAD","poiLocation":"119.920040,42.285673","poiLng":"119.920040","poiLat":"42.285673","poiName":"理想家园16号楼","poiType":"地名地址信息;门牌信息;楼栋号","poiAddress":"敖汉旗","poiBounds":"null","poiPcode":"150000","poiPname":"内蒙古自治区","poiCitycode":"0476","poiCityname":"赤峰市","poiAdcode":"150430","poiAdname":"敖汉旗","poiRegion":"内蒙古自治区/赤峰市/敖汉旗","poiVillage":"B01DC0I4Z0"},{"poiId":"B0FFF77Z9R","poiLocation":"119.920121,42.286018","poiLng":"119.920121","poiLat":"42.286018","poiName":"理想家园14号楼","poiType":"地名地址信息;门牌信息;楼栋号","poiAddress":"新惠镇新惠路理想家园","poiBounds":"null","poiPcode":"150000","poiPname":"内蒙古自治区","poiCitycode":"0476","poiCityname":"赤峰市","poiAdcode":"150430","poiAdname":"敖汉旗","poiRegion":"内蒙古自治区/赤峰市/敖汉旗","poiVillage":"B01DC0I4Z0"},{"poiId":"B0FFF77Z97","poiLocation":"119.918801,42.286876","poiLng":"119.918801","poiLat":"42.286876","poiName":"理想家园6号楼","poiType":"地名地址信息;门牌信息;楼栋号","poiAddress":"新惠镇新惠路理想家园","poiBounds":"null","poiPcode":"150000","poiPname":"内蒙古自治区","poiCitycode":"0476","poiCityname":"赤峰市","poiAdcode":"150430","poiAdname":"敖汉旗","poiRegion":"内蒙古自治区/赤峰市/敖汉旗","poiVillage":"B01DC0I4Z0"},{"poiId":"B0FFF77Z90","poiLocation":"119.919633,42.287169","poiLng":"119.919633","poiLat":"42.287169","poiName":"理想家园4号楼","poiType":"地名地址信息;门牌信息;楼栋号","poiAddress":"敖汉旗","poiBounds":"null","poiPcode":"150000","poiPname":"内蒙古自治区","poiCitycode":"0476","poiCityname":"赤峰市","poiAdcode":"150430","poiAdname":"敖汉旗","poiRegion":"内蒙古自治区/赤峰市/敖汉旗","poiVillage":"B01DC0I4Z0"},{"poiId":"B0FFI823N0","poiLocation":"119.910912,42.281232","poiLng":"119.910912","poiLat":"42.281232","poiName":"永安小区13号楼","poiType":"地名地址信息;门牌信息;楼栋号","poiAddress":"敖汉旗","poiBounds":"null","poiPcode":"150000","poiPname":"内蒙古自治区","poiCitycode":"0476","poiCityname":"赤峰市","poiAdcode":"150430","poiAdname":"敖汉旗","poiRegion":"内蒙古自治区/赤峰市/敖汉旗","poiVillage":"B0FFG9GQ6V"},{"poiId":"B0FFI814A2","poiLocation":"119.907198,42.282015","poiLng":"119.907198","poiLat":"42.282015","poiName":"永安小区4号楼","poiType":"地名地址信息;门牌信息;楼栋号","poiAddress":"敖汉旗","poiBounds":"null","poiPcode":"150000","poiPname":"内蒙古自治区","poiCitycode":"0476","poiCityname":"赤峰市","poiAdcode":"150430","poiAdname":"敖汉旗","poiRegion":"内蒙古自治区/赤峰市/敖汉旗","poiVillage":"B0FFG9GQ6V"},{"poiId":"B0FFI812NO","poiLocation":"119.907058,42.282038","poiLng":"119.907058","poiLat":"42.282038","poiName":"永安小区3号楼","poiType":"地名地址信息;门牌信息;楼栋号","poiAddress":"敖汉旗","poiBounds":"null","poiPcode":"150000","poiPname":"内蒙古自治区","poiCitycode":"0476","poiCityname":"赤峰市","poiAdcode":"150430","poiAdname":"敖汉旗","poiRegion":"内蒙古自治区/赤峰市/敖汉旗","poiVillage":"B0FFG9GQ6V"},{"poiId":"B0FFI7Y8LG","poiLocation":"119.911066,42.291249","poiLng":"119.911066","poiLat":"42.291249","poiName":"滨河花园9号楼","poiType":"地名地址信息;门牌信息;楼栋号","poiAddress":"热力小区6号楼(新惠路北)","poiBounds":"null","poiPcode":"150000","poiPname":"内蒙古自治区","poiCitycode":"0476","poiCityname":"赤峰市","poiAdcode":"150430","poiAdname":"敖汉旗","poiRegion":"内蒙古自治区/赤峰市/敖汉旗","poiVillage":"B0FFIULVDI"},{"poiId":"B0FFI7Y64P","poiLocation":"119.911033,42.290943","poiLng":"119.911033","poiLat":"42.290943","poiName":"热力小区6号楼","poiType":"地名地址信息;门牌信息;楼栋号","poiAddress":"敖汉旗","poiBounds":"null","poiPcode":"150000","poiPname":"内蒙古自治区","poiCitycode":"0476","poiCityname":"赤峰市","poiAdcode":"150430","poiAdname":"敖汉旗","poiRegion":"内蒙古自治区/赤峰市/敖汉旗","poiVillage":"B0FFHD01SP"},{"poiId":"B0FFI7Y5XP","poiLocation":"119.911028,42.290036","poiLng":"119.911028","poiLat":"42.290036","poiName":"热力小区1号楼","poiType":"地名地址信息;门牌信息;楼栋号","poiAddress":"敖汉旗","poiBounds":"null","poiPcode":"150000","poiPname":"内蒙古自治区","poiCitycode":"0476","poiCityname":"赤峰市","poiAdcode":"150430","poiAdname":"敖汉旗","poiRegion":"内蒙古自治区/赤峰市/敖汉旗","poiVillage":"B0FFHD01SP"},{"poiId":"B0FFI7Y2EP","poiLocation":"119.911126,42.290798","poiLng":"119.911126","poiLat":"42.290798","poiName":"热力小区5号楼","poiType":"地名地址信息;门牌信息;楼栋号","poiAddress":"敖汉旗","poiBounds":"null","poiPcode":"150000","poiPname":"内蒙古自治区","poiCitycode":"0476","poiCityname":"赤峰市","poiAdcode":"150430","poiAdname":"敖汉旗","poiRegion":"内蒙古自治区/赤峰市/敖汉旗","poiVillage":"B0FFHD01SP"},{"poiId":"B0FFI7Y15K","poiLocation":"119.910948,42.290571","poiLng":"119.910948","poiLat":"42.290571","poiName":"热力小区4号楼","poiType":"地名地址信息;门牌信息;楼栋号","poiAddress":"敖汉旗","poiBounds":"null","poiPcode":"150000","poiPname":"内蒙古自治区","poiCitycode":"0476","poiCityname":"赤峰市","poiAdcode":"150430","poiAdname":"敖汉旗","poiRegion":"内蒙古自治区/赤峰市/敖汉旗","poiVillage":"B0FFHD01SP"},{"poiId":"B0FFHNZV6P","poiLocation":"119.897440,42.292488","poiLng":"119.897440","poiLat":"42.292488","poiName":"鑫园1号楼","poiType":"地名地址信息;门牌信息;楼栋号","poiAddress":"烟草专卖局南50米(新建街西)","poiBounds":"null","poiPcode":"150000","poiPname":"内蒙古自治区","poiCitycode":"0476","poiCityname":"赤峰市","poiAdcode":"150430","poiAdname":"敖汉旗","poiRegion":"内蒙古自治区/赤峰市/敖汉旗","poiVillage":""},{"poiId":"B0FFHLKZAR","poiLocation":"119.906990,42.281654","poiLng":"119.906990","poiLat":"42.281654","poiName":"永安小区9号楼","poiType":"地名地址信息;门牌信息;楼栋号","poiAddress":"敖汉旗","poiBounds":"null","poiPcode":"150000","poiPname":"内蒙古自治区","poiCitycode":"0476","poiCityname":"赤峰市","poiAdcode":"150430","poiAdname":"敖汉旗","poiRegion":"内蒙古自治区/赤峰市/敖汉旗","poiVillage":"B0FFG9GQ6V"},{"poiId":"B0FFHLKFBX","poiLocation":"119.908288,42.281608","poiLng":"119.908288","poiLat":"42.281608","poiName":"永安小区10号楼","poiType":"地名地址信息;门牌信息;楼栋号","poiAddress":"新惠镇新化路新惠中学北100米","poiBounds":"null","poiPcode":"150000","poiPname":"内蒙古自治区","poiCitycode":"0476","poiCityname":"赤峰市","poiAdcode":"150430","poiAdname":"敖汉旗","poiRegion":"内蒙古自治区/赤峰市/敖汉旗","poiVillage":"B0FFG9GQ6V"},{"poiId":"B0FFGTZNQE","poiLocation":"119.904153,42.282281","poiLng":"119.904153","poiLat":"42.282281","poiName":"新化7号楼","poiType":"地名地址信息;门牌信息;楼栋号","poiAddress":"敖汉旗","poiBounds":"null","poiPcode":"150000","poiPname":"内蒙古自治区","poiCitycode":"0476","poiCityname":"赤峰市","poiAdcode":"150430","poiAdname":"敖汉旗","poiRegion":"内蒙古自治区/赤峰市/敖汉旗","poiVillage":"B01DC0I70M"},{"poiId":"B0FFF8RJQB","poiLocation":"119.909358,42.288861","poiLng":"119.909358","poiLat":"42.288861","poiName":"武安小区6号楼","poiType":"地名地址信息;门牌信息;楼栋号","poiAddress":"新东街与新惠路交叉口东南200米","poiBounds":"null","poiPcode":"150000","poiPname":"内蒙古自治区","poiCitycode":"0476","poiCityname":"赤峰市","poiAdcode":"150430","poiAdname":"敖汉旗","poiRegion":"内蒙古自治区/赤峰市/敖汉旗","poiVillage":"B01DC0I48P"},{"poiId":"B0FFF8QGML","poiLocation":"119.909262,42.288440","poiLng":"119.909262","poiLat":"42.288440","poiName":"武安小区9号楼","poiType":"地名地址信息;门牌信息;楼栋号","poiAddress":"武安小区(新惠路南)","poiBounds":"null","poiPcode":"150000","poiPname":"内蒙古自治区","poiCitycode":"0476","poiCityname":"赤峰市","poiAdcode":"150430","poiAdname":"敖汉旗","poiRegion":"内蒙古自治区/赤峰市/敖汉旗","poiVillage":"B01DC0I48P"},{"poiId":"B0FFF8NM1H","poiLocation":"119.909036,42.287680","poiLng":"119.909036","poiLat":"42.287680","poiName":"武安小区14号楼","poiType":"地名地址信息;门牌信息;楼栋号","poiAddress":"惠宁路北150米","poiBounds":"null","poiPcode":"150000","poiPname":"内蒙古自治区","poiCitycode":"0476","poiCityname":"赤峰市","poiAdcode":"150430","poiAdname":"敖汉旗","poiRegion":"内蒙古自治区/赤峰市/敖汉旗","poiVillage":"B01DC0I48P"},{"poiId":"B0FFF7Z5DM","poiLocation":"119.909755,42.289537","poiLng":"119.909755","poiLat":"42.289537","poiName":"武安小区2号楼","poiType":"地名地址信息;门牌信息;楼栋号","poiAddress":"新惠路南50米","poiBounds":"null","poiPcode":"150000","poiPname":"内蒙古自治区","poiCitycode":"0476","poiCityname":"赤峰市","poiAdcode":"150430","poiAdname":"敖汉旗","poiRegion":"内蒙古自治区/赤峰市/敖汉旗","poiVillage":"B01DC0I48P"},{"poiId":"B0FFF9CZ5L","poiLocation":"119.916866,42.284052","poiLng":"119.916866","poiLat":"42.284052","poiName":"银河金座37号楼","poiType":"地名地址信息;门牌信息;楼栋号","poiAddress":"银河金座(兴隆佳苑西100米)","poiBounds":"null","poiPcode":"150000","poiPname":"内蒙古自治区","poiCitycode":"0476","poiCityname":"赤峰市","poiAdcode":"150430","poiAdname":"敖汉旗","poiRegion":"内蒙古自治区/赤峰市/敖汉旗","poiVillage":"B0FFFZ69CF"},{"poiId":"B0FFF9CZ5D","poiLocation":"119.915736,42.281383","poiLng":"119.915736","poiLat":"42.281383","poiName":"银河花都20号楼","poiType":"地名地址信息;门牌信息;楼栋号","poiAddress":"敖汉旗","poiBounds":"null","poiPcode":"150000","poiPname":"内蒙古自治区","poiCitycode":"0476","poiCityname":"赤峰市","poiAdcode":"150430","poiAdname":"敖汉旗","poiRegion":"内蒙古自治区/赤峰市/敖汉旗","poiVillage":"B0FFFGYR0Y"},{"poiId":"B0FFF9CZ5B","poiLocation":"119.916428,42.281340","poiLng":"119.916428","poiLat":"42.281340","poiName":"银河花都21号楼","poiType":"地名地址信息;门牌信息;楼栋号","poiAddress":"敖汉旗","poiBounds":"null","poiPcode":"150000","poiPname":"内蒙古自治区","poiCitycode":"0476","poiCityname":"赤峰市","poiAdcode":"150430","poiAdname":"敖汉旗","poiRegion":"内蒙古自治区/赤峰市/敖汉旗","poiVillage":"B0FFFGYR0Y"},{"poiId":"B0FFF9CZ59","poiLocation":"119.914953,42.281475","poiLng":"119.914953","poiLat":"42.281475","poiName":"银河花都19号楼","poiType":"地名地址信息;门牌信息;楼栋号","poiAddress":"银河花都(新化路北)","poiBounds":"null","poiPcode":"150000","poiPname":"内蒙古自治区","poiCitycode":"0476","poiCityname":"赤峰市","poiAdcode":"150430","poiAdname":"敖汉旗","poiRegion":"内蒙古自治区/赤峰市/敖汉旗","poiVillage":"B0FFFGYR0Y"},{"poiId":"B0FFF9CZ55","poiLocation":"119.914561,42.281864","poiLng":"119.914561","poiLat":"42.281864","poiName":"银河花都14号楼","poiType":"地名地址信息;门牌信息;楼栋号","poiAddress":"银河花都(银河街东)","poiBounds":"null","poiPcode":"150000","poiPname":"内蒙古自治区","poiCitycode":"0476","poiCityname":"赤峰市","poiAdcode":"150430","poiAdname":"敖汉旗","poiRegion":"内蒙古自治区/赤峰市/敖汉旗","poiVillage":"B0FFFGYR0Y"},{"poiId":"B0FFF8TO84","poiLocation":"119.909900,42.288388","poiLng":"119.909900","poiLat":"42.288388","poiName":"武安小区10号楼","poiType":"地名地址信息;门牌信息;楼栋号","poiAddress":"新惠路南200米","poiBounds":"null","poiPcode":"150000","poiPname":"内蒙古自治区","poiCitycode":"0476","poiCityname":"赤峰市","poiAdcode":"150430","poiAdname":"敖汉旗","poiRegion":"内蒙古自治区/赤峰市/敖汉旗","poiVillage":"B01DC0I48P"},{"poiId":"B0FFF88DAT","poiLocation":"119.909967,42.287551","poiLng":"119.909967","poiLat":"42.287551","poiName":"武安小区16号楼","poiType":"地名地址信息;门牌信息;楼栋号","poiAddress":"惠宁路北150米","poiBounds":"null","poiPcode":"150000","poiPname":"内蒙古自治区","poiCitycode":"0476","poiCityname":"赤峰市","poiAdcode":"150430","poiAdname":"敖汉旗","poiRegion":"内蒙古自治区/赤峰市/敖汉旗","poiVillage":"B01DC0I48P"},{"poiId":"B0FFF84B56","poiLocation":"119.910039,42.287987","poiLng":"119.910039","poiLat":"42.287987","poiName":"武安小区13号楼","poiType":"地名地址信息;门牌信息;楼栋号","poiAddress":"滨河街西200米","poiBounds":"null","poiPcode":"150000","poiPname":"内蒙古自治区","poiCitycode":"0476","poiCityname":"赤峰市","poiAdcode":"150430","poiAdname":"敖汉旗","poiRegion":"内蒙古自治区/赤峰市/敖汉旗","poiVillage":"B01DC0I48P"},{"poiId":"B0FFF7Z7ZG","poiLocation":"119.909833,42.288807","poiLng":"119.909833","poiLat":"42.288807","poiName":"武安小区7号楼","poiType":"地名地址信息;门牌信息;楼栋号","poiAddress":"新惠路南150米","poiBounds":"null","poiPcode":"150000","poiPname":"内蒙古自治区","poiCitycode":"0476","poiCityname":"赤峰市","poiAdcode":"150430","poiAdname":"敖汉旗","poiRegion":"内蒙古自治区/赤峰市/敖汉旗","poiVillage":"B01DC0I48P"},{"poiId":"B0FFF77ZCJ","poiLocation":"119.918286,42.283848","poiLng":"119.918286","poiLat":"42.283848","poiName":"兴隆佳苑12号楼","poiType":"地名地址信息;门牌信息;楼栋号","poiAddress":"敖汉旗","poiBounds":"null","poiPcode":"150000","poiPname":"内蒙古自治区","poiCitycode":"0476","poiCityname":"赤峰市","poiAdcode":"150430","poiAdname":"敖汉旗","poiRegion":"内蒙古自治区/赤峰市/敖汉旗","poiVillage":"B0FFFGZVBK"},{"poiId":"B0FFF77ZCI","poiLocation":"119.918308,42.284233","poiLng":"119.918308","poiLat":"42.284233","poiName":"兴隆佳苑9号楼","poiType":"地名地址信息;门牌信息;楼栋号","poiAddress":"敖汉旗","poiBounds":"null","poiPcode":"150000","poiPname":"内蒙古自治区","poiCitycode":"0476","poiCityname":"赤峰市","poiAdcode":"150430","poiAdname":"敖汉旗","poiRegion":"内蒙古自治区/赤峰市/敖汉旗","poiVillage":"B0FFFGZVBK"},{"poiId":"B0FFF77ZC7","poiLocation":"119.919179,42.284935","poiLng":"119.919179","poiLat":"42.284935","poiName":"兴隆佳苑5号楼","poiType":"地名地址信息;门牌信息;楼栋号","poiAddress":"敖汉旗","poiBounds":"null","poiPcode":"150000","poiPname":"内蒙古自治区","poiCitycode":"0476","poiCityname":"赤峰市","poiAdcode":"150430","poiAdname":"敖汉旗","poiRegion":"内蒙古自治区/赤峰市/敖汉旗","poiVillage":"B0FFFGZVBK"},{"poiId":"B0FFF77ZAX","poiLocation":"119.919244,42.285267","poiLng":"119.919244","poiLat":"42.285267","poiName":"兴隆佳苑2号楼","poiType":"地名地址信息;门牌信息;楼栋号","poiAddress":"敖汉旗","poiBounds":"null","poiPcode":"150000","poiPname":"内蒙古自治区","poiCitycode":"0476","poiCityname":"赤峰市","poiAdcode":"150430","poiAdname":"敖汉旗","poiRegion":"内蒙古自治区/赤峰市/敖汉旗","poiVillage":"B0FFFGZVBK"},{"poiId":"B0FFF77ZAP","poiLocation":"119.918589,42.285316","poiLng":"119.918589","poiLat":"42.285316","poiName":"兴隆佳苑1号楼","poiType":"地名地址信息;门牌信息;楼栋号","poiAddress":"敖汉旗","poiBounds":"null","poiPcode":"150000","poiPname":"内蒙古自治区","poiCitycode":"0476","poiCityname":"赤峰市","poiAdcode":"150430","poiAdname":"敖汉旗","poiRegion":"内蒙古自治区/赤峰市/敖汉旗","poiVillage":"B0FFFGZVBK"},{"poiId":"B0FFF77Z8Z","poiLocation":"119.918076,42.288069","poiLng":"119.918076","poiLat":"42.288069","poiName":"银河花城7号楼","poiType":"地名地址信息;门牌信息;楼栋号","poiAddress":"敖汉旗","poiBounds":"null","poiPcode":"150000","poiPname":"内蒙古自治区","poiCitycode":"0476","poiCityname":"赤峰市","poiAdcode":"150430","poiAdname":"敖汉旗","poiRegion":"内蒙古自治区/赤峰市/敖汉旗","poiVillage":"B01DC0I4YZ"},{"poiId":"B0FFF77Z8L","poiLocation":"119.916272,42.288294","poiLng":"119.916272","poiLat":"42.288294","poiName":"银河花城3号楼","poiType":"地名地址信息;门牌信息;楼栋号","poiAddress":"银河花城(银河街东)","poiBounds":"null","poiPcode":"150000","poiPname":"内蒙古自治区","poiCitycode":"0476","poiCityname":"赤峰市","poiAdcode":"150430","poiAdname":"敖汉旗","poiRegion":"内蒙古自治区/赤峰市/敖汉旗","poiVillage":"B01DC0I4YZ"},{"poiId":"B0FFF77Z8E","poiLocation":"119.917324,42.288214","poiLng":"119.917324","poiLat":"42.288214","poiName":"银河花城4号楼","poiType":"地名地址信息;门牌信息;楼栋号","poiAddress":"银河花城(新惠路南)","poiBounds":"null","poiPcode":"150000","poiPname":"内蒙古自治区","poiCitycode":"0476","poiCityname":"赤峰市","poiAdcode":"150430","poiAdname":"敖汉旗","poiRegion":"内蒙古自治区/赤峰市/敖汉旗","poiVillage":"B01DC0I4YZ"},{"poiId":"B0FFF77Z89","poiLocation":"119.915939,42.287877","poiLng":"119.915939","poiLat":"42.287877","poiName":"银河花城5号楼","poiType":"地名地址信息;门牌信息;楼栋号","poiAddress":"银河花城(银河街东)","poiBounds":"null","poiPcode":"150000","poiPname":"内蒙古自治区","poiCitycode":"0476","poiCityname":"赤峰市","poiAdcode":"150430","poiAdname":"敖汉旗","poiRegion":"内蒙古自治区/赤峰市/敖汉旗","poiVillage":"B01DC0I4YZ"},{"poiId":"B0FFF77Z7Y","poiLocation":"119.915864,42.287548","poiLng":"119.915864","poiLat":"42.287548","poiName":"银河花城8号楼","poiType":"地名地址信息;门牌信息;楼栋号","poiAddress":"银河花城(银河街东)","poiBounds":"null","poiPcode":"150000","poiPname":"内蒙古自治区","poiCitycode":"0476","poiCityname":"赤峰市","poiAdcode":"150430","poiAdname":"敖汉旗","poiRegion":"内蒙古自治区/赤峰市/敖汉旗","poiVillage":"B01DC0I4YZ"},{"poiId":"B0FFF77Z6X","poiLocation":"119.917399,42.287413","poiLng":"119.917399","poiLat":"42.287413","poiName":"银河花城9号楼","poiType":"地名地址信息;门牌信息;楼栋号","poiAddress":"银河花城(惠州街西)","poiBounds":"null","poiPcode":"150000","poiPname":"内蒙古自治区","poiCitycode":"0476","poiCityname":"赤峰市","poiAdcode":"150430","poiAdname":"敖汉旗","poiRegion":"内蒙古自治区/赤峰市/敖汉旗","poiVillage":"B01DC0I4YZ"},{"poiId":"B0FFK8BOSH","poiLocation":"119.909256,42.281500","poiLng":"119.909256","poiLat":"42.281500","poiName":"永安小区12号楼","poiType":"地名地址信息;门牌信息;楼栋号","poiAddress":"敖汉旗","poiBounds":"null","poiPcode":"150000","poiPname":"内蒙古自治区","poiCitycode":"0476","poiCityname":"赤峰市","poiAdcode":"150430","poiAdname":"敖汉旗","poiRegion":"内蒙古自治区/赤峰市/敖汉旗","poiVillage":"B0FFG9GQ6V"},{"poiId":"B0FFKD0NGD","poiLocation":"119.916689,42.280069","poiLng":"119.916689","poiLat":"42.280069","poiName":"丽水河畔16号楼","poiType":"地名地址信息;门牌信息;楼栋号","poiAddress":"敖汉旗","poiBounds":"null","poiPcode":"150000","poiPname":"内蒙古自治区","poiCitycode":"0476","poiCityname":"赤峰市","poiAdcode":"150430","poiAdname":"敖汉旗","poiRegion":"内蒙古自治区/赤峰市/敖汉旗","poiVillage":"B0FFGDBD7C"},{"poiId":"B0FFK8BIIY","poiLocation":"119.918581,42.283085","poiLng":"119.918581","poiLat":"42.283085","poiName":"兴隆小区17号楼","poiType":"地名地址信息;门牌信息;楼栋号","poiAddress":"敖汉旗","poiBounds":"null","poiPcode":"150000","poiPname":"内蒙古自治区","poiCitycode":"0476","poiCityname":"赤峰市","poiAdcode":"150430","poiAdname":"敖汉旗","poiRegion":"内蒙古自治区/赤峰市/敖汉旗","poiVillage":"B0FFG9CZ1O"},{"poiId":"B0FFF0LNZU","poiLocation":"119.914620,42.282233","poiLng":"119.914620","poiLat":"42.282233","poiName":"银河花都10号楼","poiType":"地名地址信息;门牌信息;楼栋号","poiAddress":"新化路北150米","poiBounds":"null","poiPcode":"150000","poiPname":"内蒙古自治区","poiCitycode":"0476","poiCityname":"赤峰市","poiAdcode":"150430","poiAdname":"敖汉旗","poiRegion":"内蒙古自治区/赤峰市/敖汉旗","poiVillage":"B0FFFGYR0Y"},{"poiId":"B0FFF0LNZK","poiLocation":"119.915924,42.283205","poiLng":"119.915924","poiLat":"42.283205","poiName":"银河花都2号楼","poiType":"地名地址信息;门牌信息;楼栋号","poiAddress":"新惠镇","poiBounds":"null","poiPcode":"150000","poiPname":"内蒙古自治区","poiCitycode":"0476","poiCityname":"赤峰市","poiAdcode":"150430","poiAdname":"敖汉旗","poiRegion":"内蒙古自治区/赤峰市/敖汉旗","poiVillage":"B0FFFGYR0Y"},{"poiId":"B0FFF7HRRD","poiLocation":"119.923388,42.284692","poiLng":"119.923388","poiLat":"42.284692","poiName":"吉祥家园7号楼","poiType":"地名地址信息;门牌信息;楼栋号","poiAddress":"百柳街西100米","poiBounds":"null","poiPcode":"150000","poiPname":"内蒙古自治区","poiCitycode":"0476","poiCityname":"赤峰市","poiAdcode":"150430","poiAdname":"敖汉旗","poiRegion":"内蒙古自治区/赤峰市/敖汉旗","poiVillage":"B0FFF01QR6"},{"poiId":"B0FFF7HRR6","poiLocation":"119.921966,42.283181","poiLng":"119.921966","poiLat":"42.283181","poiName":"吉祥家园3号楼","poiType":"地名地址信息;门牌信息;楼栋号","poiAddress":"百柳街西150米","poiBounds":"null","poiPcode":"150000","poiPname":"内蒙古自治区","poiCitycode":"0476","poiCityname":"赤峰市","poiAdcode":"150430","poiAdname":"敖汉旗","poiRegion":"内蒙古自治区/赤峰市/敖汉旗","poiVillage":"B0FFF01QR6"},{"poiId":"B0FFL0ZGND","poiLocation":"119.914554,42.280959","poiLng":"119.914554","poiLat":"42.280959","poiName":"丽水河畔19号楼","poiType":"地名地址信息;门牌信息;楼栋号","poiAddress":"河畔19号楼","poiBounds":"null","poiPcode":"150000","poiPname":"内蒙古自治区","poiCitycode":"0476","poiCityname":"赤峰市","poiAdcode":"150430","poiAdname":"敖汉旗","poiRegion":"内蒙古自治区/赤峰市/敖汉旗","poiVillage":""},{"poiId":"B0FFF77Z6W","poiLocation":"119.915730,42.287187","poiLng":"119.915730","poiLat":"42.287187","poiName":"银河花城10号楼","poiType":"地名地址信息;门牌信息;楼栋号","poiAddress":"银河花城(银河街东)","poiBounds":"null","poiPcode":"150000","poiPname":"内蒙古自治区","poiCitycode":"0476","poiCityname":"赤峰市","poiAdcode":"150430","poiAdname":"敖汉旗","poiRegion":"内蒙古自治区/赤峰市/敖汉旗","poiVillage":"B01DC0I4YZ"},{"poiId":"B0FFF77Z5F","poiLocation":"119.916390,42.286738","poiLng":"119.916390","poiLat":"42.286738","poiName":"银河花城13号楼","poiType":"地名地址信息;门牌信息;楼栋号","poiAddress":"敖汉旗","poiBounds":"null","poiPcode":"150000","poiPname":"内蒙古自治区","poiCitycode":"0476","poiCityname":"赤峰市","poiAdcode":"150430","poiAdname":"敖汉旗","poiRegion":"内蒙古自治区/赤峰市/敖汉旗","poiVillage":"B01DC0I4YZ"},{"poiId":"B0FFF77Z5E","poiLocation":"119.917232,42.286651","poiLng":"119.917232","poiLat":"42.286651","poiName":"银河花城14号楼","poiType":"地名地址信息;门牌信息;楼栋号","poiAddress":"敖汉旗","poiBounds":"null","poiPcode":"150000","poiPname":"内蒙古自治区","poiCitycode":"0476","poiCityname":"赤峰市","poiAdcode":"150430","poiAdname":"敖汉旗","poiRegion":"内蒙古自治区/赤峰市/敖汉旗","poiVillage":"B01DC0I4YZ"},{"poiId":"B0FFF77Z5C","poiLocation":"119.917125,42.286294","poiLng":"119.917125","poiLat":"42.286294","poiName":"银河花城16号楼","poiType":"地名地址信息;门牌信息;楼栋号","poiAddress":"银河花城(惠州街西)","poiBounds":"null","poiPcode":"150000","poiPname":"内蒙古自治区","poiCitycode":"0476","poiCityname":"赤峰市","poiAdcode":"150430","poiAdname":"敖汉旗","poiRegion":"内蒙古自治区/赤峰市/敖汉旗","poiVillage":"B01DC0I4YZ"},{"poiId":"B0FFF77Z50","poiLocation":"119.916240,42.285960","poiLng":"119.916240","poiLat":"42.285960","poiName":"银河花城18号楼","poiType":"地名地址信息;门牌信息;楼栋号","poiAddress":"银河花城(惠州街西)","poiBounds":"null","poiPcode":"150000","poiPname":"内蒙古自治区","poiCitycode":"0476","poiCityname":"赤峰市","poiAdcode":"150430","poiAdname":"敖汉旗","poiRegion":"内蒙古自治区/赤峰市/敖汉旗","poiVillage":"B01DC0I4YZ"},{"poiId":"B0FFF0LO3F","poiLocation":"119.917034,42.285917","poiLng":"119.917034","poiLat":"42.285917","poiName":"银河花城17号楼","poiType":"地名地址信息;门牌信息;楼栋号","poiAddress":"银河花城(惠宁路北)","poiBounds":"null","poiPcode":"150000","poiPname":"内蒙古自治区","poiCitycode":"0476","poiCityname":"赤峰市","poiAdcode":"150430","poiAdname":"敖汉旗","poiRegion":"内蒙古自治区/赤峰市/敖汉旗","poiVillage":"B01DC0I4YZ"},{"poiId":"B0FFF0LNZW","poiLocation":"119.918540,42.284995","poiLng":"119.918540","poiLat":"42.284995","poiName":"兴隆佳苑4号楼","poiType":"地名地址信息;门牌信息;楼栋号","poiAddress":"敖汉旗","poiBounds":"null","poiPcode":"150000","poiPname":"内蒙古自治区","poiCitycode":"0476","poiCityname":"赤峰市","poiAdcode":"150430","poiAdname":"敖汉旗","poiRegion":"内蒙古自治区/赤峰市/敖汉旗","poiVillage":"B0FFFGZVBK"},{"poiId":"B0FFF0LNZT","poiLocation":"119.915788,42.284764","poiLng":"119.915788","poiLat":"42.284764","poiName":"银河金座31号楼","poiType":"地名地址信息;门牌信息;楼栋号","poiAddress":"敖汉旗","poiBounds":"null","poiPcode":"150000","poiPname":"内蒙古自治区","poiCitycode":"0476","poiCityname":"赤峰市","poiAdcode":"150430","poiAdname":"敖汉旗","poiRegion":"内蒙古自治区/赤峰市/敖汉旗","poiVillage":"B0FFFZ69CF"},{"poiId":"B0FFF0LNY8","poiLocation":"119.916074,42.285384","poiLng":"119.916074","poiLat":"42.285384","poiName":"银河花城21号楼","poiType":"地名地址信息;门牌信息;楼栋号","poiAddress":"银河金座(惠宁路南)","poiBounds":"null","poiPcode":"150000","poiPname":"内蒙古自治区","poiCitycode":"0476","poiCityname":"赤峰市","poiAdcode":"150430","poiAdname":"敖汉旗","poiRegion":"内蒙古自治区/赤峰市/敖汉旗","poiVillage":"B01DC0I4YZ"},{"poiId":"B0FFF0LNW8","poiLocation":"119.918691,42.285996","poiLng":"119.918691","poiLat":"42.285996","poiName":"理想家园12号楼","poiType":"地名地址信息;门牌信息;楼栋号","poiAddress":"敖汉旗","poiBounds":"null","poiPcode":"150000","poiPname":"内蒙古自治区","poiCitycode":"0476","poiCityname":"赤峰市","poiAdcode":"150430","poiAdname":"敖汉旗","poiRegion":"内蒙古自治区/赤峰市/敖汉旗","poiVillage":"B01DC0I4Z0"},{"poiId":"B0FFHLLNAU","poiLocation":"119.926676,42.284984","poiLng":"119.926676","poiLat":"42.284984","poiName":"盛泽园16号楼","poiType":"地名地址信息;门牌信息;楼栋号","poiAddress":"敖汉旗","poiBounds":"null","poiPcode":"150000","poiPname":"内蒙古自治区","poiCitycode":"0476","poiCityname":"赤峰市","poiAdcode":"150430","poiAdname":"敖汉旗","poiRegion":"内蒙古自治区/赤峰市/敖汉旗","poiVillage":"B0FFG0HQH5"},{"poiId":"B0FFF7HRR4","poiLocation":"119.921258,42.282423","poiLng":"119.921258","poiLat":"42.282423","poiName":"兴和公馆A座","poiType":"地名地址信息;门牌信息;楼栋号","poiAddress":"振兴路","poiBounds":"null","poiPcode":"150000","poiPname":"内蒙古自治区","poiCitycode":"0476","poiCityname":"赤峰市","poiAdcode":"150430","poiAdname":"敖汉旗","poiRegion":"内蒙古自治区/赤峰市/敖汉旗","poiVillage":"B0FFFGSQ10"},{"poiId":"B0FFF7HRR1","poiLocation":"119.921210,42.281863","poiLng":"119.921210","poiLat":"42.281863","poiName":"兴和公馆C座","poiType":"地名地址信息;门牌信息;楼栋号","poiAddress":"新惠镇新化路兴和公馆","poiBounds":"null","poiPcode":"150000","poiPname":"内蒙古自治区","poiCitycode":"0476","poiCityname":"赤峰市","poiAdcode":"150430","poiAdname":"敖汉旗","poiRegion":"内蒙古自治区/赤峰市/敖汉旗","poiVillage":"B0FFFGSQ10"},{"poiId":"B0FFF7HRQH","poiLocation":"119.925796,42.282202","poiLng":"119.925796","poiLat":"42.282202","poiName":"龙熙园小区4号楼","poiType":"地名地址信息;门牌信息;楼栋号","poiAddress":"龙熙园(振兴路南)","poiBounds":"null","poiPcode":"150000","poiPname":"内蒙古自治区","poiCitycode":"0476","poiCityname":"赤峰市","poiAdcode":"150430","poiAdname":"敖汉旗","poiRegion":"内蒙古自治区/赤峰市/敖汉旗","poiVillage":"B0FFF6X4KQ"},{"poiId":"B0FFF7HRQG","poiLocation":"119.925509,42.282258","poiLng":"119.925509","poiLat":"42.282258","poiName":"龙熙园小区3号楼","poiType":"地名地址信息;门牌信息;楼栋号","poiAddress":"百柳街东200米","poiBounds":"null","poiPcode":"150000","poiPname":"内蒙古自治区","poiCitycode":"0476","poiCityname":"赤峰市","poiAdcode":"150430","poiAdname":"敖汉旗","poiRegion":"内蒙古自治区/赤峰市/敖汉旗","poiVillage":"B0FFF6X4KQ"},{"poiId":"B0FFF7HRQE","poiLocation":"119.925968,42.281926","poiLng":"119.925968","poiLat":"42.281926","poiName":"龙熙园小区8号楼","poiType":"地名地址信息;门牌信息;楼栋号","poiAddress":"龙熙园(振兴路南)","poiBounds":"null","poiPcode":"150000","poiPname":"内蒙古自治区","poiCitycode":"0476","poiCityname":"赤峰市","poiAdcode":"150430","poiAdname":"敖汉旗","poiRegion":"内蒙古自治区/赤峰市/敖汉旗","poiVillage":"B0FFF6X4KQ"},{"poiId":"B0FFF7HRQA","poiLocation":"119.924667,42.280496","poiLng":"119.924667","poiLat":"42.280496","poiName":"龙熙园小区19号楼","poiType":"地名地址信息;门牌信息;楼栋号","poiAddress":"新化路北50米","poiBounds":"null","poiPcode":"150000","poiPname":"内蒙古自治区","poiCitycode":"0476","poiCityname":"赤峰市","poiAdcode":"150430","poiAdname":"敖汉旗","poiRegion":"内蒙古自治区/赤峰市/敖汉旗","poiVillage":"B0FFF6X4KQ"},{"poiId":"B0FFF7HRQ9","poiLocation":"119.924629,42.281639","poiLng":"119.924629","poiLat":"42.281639","poiName":"龙熙园小区6号楼","poiType":"地名地址信息;门牌信息;楼栋号","poiAddress":"敖汉旗","poiBounds":"null","poiPcode":"150000","poiPname":"内蒙古自治区","poiCitycode":"0476","poiCityname":"赤峰市","poiAdcode":"150430","poiAdname":"敖汉旗","poiRegion":"内蒙古自治区/赤峰市/敖汉旗","poiVillage":"B0FFF6X4KQ"},{"poiId":"B0FFF7HRQ8","poiLocation":"119.924517,42.280976","poiLng":"119.924517","poiLat":"42.280976","poiName":"龙熙园小区7号楼","poiType":"地名地址信息;门牌信息;楼栋号","poiAddress":"新化路与百柳街交叉口东150米","poiBounds":"null","poiPcode":"150000","poiPname":"内蒙古自治区","poiCitycode":"0476","poiCityname":"赤峰市","poiAdcode":"150430","poiAdname":"敖汉旗","poiRegion":"内蒙古自治区/赤峰市/敖汉旗","poiVillage":"B0FFF6X4KQ"},{"poiId":"B0FFF7HRQ7","poiLocation":"119.924892,42.282302","poiLng":"119.924892","poiLat":"42.282302","poiName":"龙熙园小区2号楼","poiType":"地名地址信息;门牌信息;楼栋号","poiAddress":"百柳街东150米","poiBounds":"null","poiPcode":"150000","poiPname":"内蒙古自治区","poiCitycode":"0476","poiCityname":"赤峰市","poiAdcode":"150430","poiAdname":"敖汉旗","poiRegion":"内蒙古自治区/赤峰市/敖汉旗","poiVillage":"B0FFF6X4KQ"},{"poiId":"B0FFF9CZ4Y","poiLocation":"119.914754,42.282602","poiLng":"119.914754","poiLat":"42.282602","poiName":"银河花都7号楼","poiType":"地名地址信息;门牌信息;楼栋号","poiAddress":"新惠镇新化路银河花都","poiBounds":"null","poiPcode":"150000","poiPname":"内蒙古自治区","poiCitycode":"0476","poiCityname":"赤峰市","poiAdcode":"150430","poiAdname":"敖汉旗","poiRegion":"内蒙古自治区/赤峰市/敖汉旗","poiVillage":"B0FFFGYR0Y"},{"poiId":"B0FFF9CZ4W","poiLocation":"119.915452,42.282908","poiLng":"119.915452","poiLat":"42.282908","poiName":"银河花都5号楼","poiType":"地名地址信息;门牌信息;楼栋号","poiAddress":"新惠镇新化路银河花都","poiBounds":"null","poiPcode":"150000","poiPname":"内蒙古自治区","poiCitycode":"0476","poiCityname":"赤峰市","poiAdcode":"150430","poiAdname":"敖汉旗","poiRegion":"内蒙古自治区/赤峰市/敖汉旗","poiVillage":"B0FFFGYR0Y"},{"poiId":"B0FFF9CYS8","poiLocation":"119.915917,42.285165","poiLng":"119.915917","poiLat":"42.285165","poiName":"银河金座27号楼","poiType":"地名地址信息;门牌信息;楼栋号","poiAddress":"敖汉旗","poiBounds":"null","poiPcode":"150000","poiPname":"内蒙古自治区","poiCitycode":"0476","poiCityname":"赤峰市","poiAdcode":"150430","poiAdname":"敖汉旗","poiRegion":"内蒙古自治区/赤峰市/敖汉旗","poiVillage":"B0FFFZ69CF"},{"poiId":"B0FFF8NOAQ","poiLocation":"119.910214,42.288778","poiLng":"119.910214","poiLat":"42.288778","poiName":"武安小区8号楼","poiType":"地名地址信息;门牌信息;楼栋号","poiAddress":"新惠路南150米","poiBounds":"null","poiPcode":"150000","poiPname":"内蒙古自治区","poiCitycode":"0476","poiCityname":"赤峰市","poiAdcode":"150430","poiAdname":"敖汉旗","poiRegion":"内蒙古自治区/赤峰市/敖汉旗","poiVillage":"B01DC0I48P"},{"poiId":"B0FFF7HRPW","poiLocation":"119.916480,42.283625","poiLng":"119.916480","poiLat":"42.283625","poiName":"银河金座40号7号楼","poiType":"地名地址信息;门牌信息;楼栋号","poiAddress":"银河金座(振兴路北)","poiBounds":"null","poiPcode":"150000","poiPname":"内蒙古自治区","poiCitycode":"0476","poiCityname":"赤峰市","poiAdcode":"150430","poiAdname":"敖汉旗","poiRegion":"内蒙古自治区/赤峰市/敖汉旗","poiVillage":"B0FFFZ69CF"},{"poiId":"B0FFF7HC0K","poiLocation":"119.911274,42.285197","poiLng":"119.911274","poiLat":"42.285197","poiName":"发改委家属楼1号楼","poiType":"地名地址信息;门牌信息;楼栋号","poiAddress":"惠宁路与滨河街交叉口西南150米","poiBounds":"null","poiPcode":"150000","poiPname":"内蒙古自治区","poiCitycode":"0476","poiCityname":"赤峰市","poiAdcode":"150430","poiAdname":"敖汉旗","poiRegion":"内蒙古自治区/赤峰市/敖汉旗","poiVillage":""},{"poiId":"B0FFF78VC9","poiLocation":"119.909541,42.288031","poiLng":"119.909541","poiLat":"42.288031","poiName":"武安小区12号楼","poiType":"地名地址信息;门牌信息;楼栋号","poiAddress":"新东街东200米","poiBounds":"null","poiPcode":"150000","poiPname":"内蒙古自治区","poiCitycode":"0476","poiCityname":"赤峰市","poiAdcode":"150430","poiAdname":"敖汉旗","poiRegion":"内蒙古自治区/赤峰市/敖汉旗","poiVillage":"B01DC0I48P"},{"poiId":"B0FFF78R4C","poiLocation":"119.914828,42.283813","poiLng":"119.914828","poiLat":"42.283813","poiName":"银河金座38号楼","poiType":"地名地址信息;门牌信息;楼栋号","poiAddress":"敖汉旗","poiBounds":"null","poiPcode":"150000","poiPname":"内蒙古自治区","poiCitycode":"0476","poiCityname":"赤峰市","poiAdcode":"150430","poiAdname":"敖汉旗","poiRegion":"内蒙古自治区/赤峰市/敖汉旗","poiVillage":"B0FFFZ69CF"},{"poiId":"B0FFF77Z8H","poiLocation":"119.916632,42.287826","poiLng":"119.916632","poiLat":"42.287826","poiName":"银河花城6号楼","poiType":"地名地址信息;门牌信息;楼栋号","poiAddress":"银河花城(新惠路南)","poiBounds":"null","poiPcode":"150000","poiPname":"内蒙古自治区","poiCitycode":"0476","poiCityname":"赤峰市","poiAdcode":"150430","poiAdname":"敖汉旗","poiRegion":"内蒙古自治区/赤峰市/敖汉旗","poiVillage":"B01DC0I4YZ"},{"poiId":"B0FFF77Z7J","poiLocation":"119.917131,42.287032","poiLng":"119.917131","poiLat":"42.287032","poiName":"银河花城11号楼","poiType":"地名地址信息;门牌信息;楼栋号","poiAddress":"敖汉旗","poiBounds":"null","poiPcode":"150000","poiPname":"内蒙古自治区","poiCitycode":"0476","poiCityname":"赤峰市","poiAdcode":"150430","poiAdname":"敖汉旗","poiRegion":"内蒙古自治区/赤峰市/敖汉旗","poiVillage":"B01DC0I4YZ"},{"poiId":"B0FFF77Z6R","poiLocation":"119.915532,42.286814","poiLng":"119.915532","poiLat":"42.286814","poiName":"银河花城12号楼","poiType":"地名地址信息;门牌信息;楼栋号","poiAddress":"银河花城(银河街东)","poiBounds":"null","poiPcode":"150000","poiPname":"内蒙古自治区","poiCitycode":"0476","poiCityname":"赤峰市","poiAdcode":"150430","poiAdname":"敖汉旗","poiRegion":"内蒙古自治区/赤峰市/敖汉旗","poiVillage":"B01DC0I4YZ"},{"poiId":"B0FFF77Z53","poiLocation":"119.916385,42.286341","poiLng":"119.916385","poiLat":"42.286341","poiName":"银河花城15号楼","poiType":"地名地址信息;门牌信息;楼栋号","poiAddress":"敖汉旗","poiBounds":"null","poiPcode":"150000","poiPname":"内蒙古自治区","poiCitycode":"0476","poiCityname":"赤峰市","poiAdcode":"150430","poiAdname":"敖汉旗","poiRegion":"内蒙古自治区/赤峰市/敖汉旗","poiVillage":"B01DC0I4YZ"},{"poiId":"B0FFF7HRR3","poiLocation":"119.921789,42.281816","poiLng":"119.921789","poiLat":"42.281816","poiName":"兴和公馆D座","poiType":"地名地址信息;门牌信息;楼栋号","poiAddress":"新惠镇新化路兴和公馆","poiBounds":"null","poiPcode":"150000","poiPname":"内蒙古自治区","poiCitycode":"0476","poiCityname":"赤峰市","poiAdcode":"150430","poiAdname":"敖汉旗","poiRegion":"内蒙古自治区/赤峰市/敖汉旗","poiVillage":"B0FFFGSQ10"},{"poiId":"B0FFF7HRR0","poiLocation":"119.922701,42.284320","poiLng":"119.922701","poiLat":"42.284320","poiName":"吉祥家园6号楼","poiType":"地名地址信息;门牌信息;楼栋号","poiAddress":"吉祥家园6号楼(惠宁路南100米)","poiBounds":"null","poiPcode":"150000","poiPname":"内蒙古自治区","poiCitycode":"0476","poiCityname":"赤峰市","poiAdcode":"150430","poiAdname":"敖汉旗","poiRegion":"内蒙古自治区/赤峰市/敖汉旗","poiVillage":"B0FFF01QR6"},{"poiId":"B0FFF7HRQB","poiLocation":"119.924964,42.280486","poiLng":"119.924964","poiLat":"42.280486","poiName":"龙熙园小区20号楼","poiType":"地名地址信息;门牌信息;楼栋号","poiAddress":"新化路北50米","poiBounds":"null","poiPcode":"150000","poiPname":"内蒙古自治区","poiCitycode":"0476","poiCityname":"赤峰市","poiAdcode":"150430","poiAdname":"敖汉旗","poiRegion":"内蒙古自治区/赤峰市/敖汉旗","poiVillage":"B0FFF6X4KQ"},{"poiId":"B0FFF7HRQ6","poiLocation":"119.924664,42.281851","poiLng":"119.924664","poiLat":"42.281851","poiName":"龙熙园小区5号楼","poiType":"地名地址信息;门牌信息;楼栋号","poiAddress":"百柳街东150米","poiBounds":"null","poiPcode":"150000","poiPname":"内蒙古自治区","poiCitycode":"0476","poiCityname":"赤峰市","poiAdcode":"150430","poiAdname":"敖汉旗","poiRegion":"内蒙古自治区/赤峰市/敖汉旗","poiVillage":"B0FFF6X4KQ"},{"poiId":"B0FFF77ZCG","poiLocation":"119.919842,42.284423","poiLng":"119.919842","poiLat":"42.284423","poiName":"兴隆佳苑8号楼","poiType":"地名地址信息;门牌信息;楼栋号","poiAddress":"敖汉旗","poiBounds":"null","poiPcode":"150000","poiPname":"内蒙古自治区","poiCitycode":"0476","poiCityname":"赤峰市","poiAdcode":"150430","poiAdname":"敖汉旗","poiRegion":"内蒙古自治区/赤峰市/敖汉旗","poiVillage":"B0FFFGZVBK"},{"poiId":"B0FFF77ZCE","poiLocation":"119.919091,42.283756","poiLng":"119.919091","poiLat":"42.283756","poiName":"兴隆佳苑14号楼","poiType":"地名地址信息;门牌信息;楼栋号","poiAddress":"敖汉旗","poiBounds":"null","poiPcode":"150000","poiPname":"内蒙古自治区","poiCitycode":"0476","poiCityname":"赤峰市","poiAdcode":"150430","poiAdname":"敖汉旗","poiRegion":"内蒙古自治区/赤峰市/敖汉旗","poiVillage":"B0FFFGZVBK"},{"poiId":"B0FFF77ZAI","poiLocation":"119.918871,42.285753","poiLng":"119.918871","poiLat":"42.285753","poiName":"理想家园15号楼","poiType":"地名地址信息;门牌信息;楼栋号","poiAddress":"敖汉旗","poiBounds":"null","poiPcode":"150000","poiPname":"内蒙古自治区","poiCitycode":"0476","poiCityname":"赤峰市","poiAdcode":"150430","poiAdname":"敖汉旗","poiRegion":"内蒙古自治区/赤峰市/敖汉旗","poiVillage":"B01DC0I4Z0"},{"poiId":"B0FFF77ZAG","poiLocation":"119.918404,42.284550","poiLng":"119.918404","poiLat":"42.284550","poiName":"兴隆佳苑7号楼","poiType":"地名地址信息;门牌信息;楼栋号","poiAddress":"敖汉旗","poiBounds":"null","poiPcode":"150000","poiPname":"内蒙古自治区","poiCitycode":"0476","poiCityname":"赤峰市","poiAdcode":"150430","poiAdname":"敖汉旗","poiRegion":"内蒙古自治区/赤峰市/敖汉旗","poiVillage":"B0FFFGZVBK"},{"poiId":"B0FFF7HRQ4","poiLocation":"119.924999,42.281752","poiLng":"119.924999","poiLat":"42.281752","poiName":"龙熙园小区11号楼","poiType":"地名地址信息;门牌信息;楼栋号","poiAddress":"百柳街东150米","poiBounds":"null","poiPcode":"150000","poiPname":"内蒙古自治区","poiCitycode":"0476","poiCityname":"赤峰市","poiAdcode":"150430","poiAdname":"敖汉旗","poiRegion":"内蒙古自治区/赤峰市/敖汉旗","poiVillage":"B0FFF6X4KQ"},{"poiId":"B0FFF7HRQ3","poiLocation":"119.924731,42.281276","poiLng":"119.924731","poiLat":"42.281276","poiName":"龙熙园小区16号楼","poiType":"地名地址信息;门牌信息;楼栋号","poiAddress":"新化路北150米","poiBounds":"null","poiPcode":"150000","poiPname":"内蒙古自治区","poiCitycode":"0476","poiCityname":"赤峰市","poiAdcode":"150430","poiAdname":"敖汉旗","poiRegion":"内蒙古自治区/赤峰市/敖汉旗","poiVillage":"B0FFF6X4KQ"},{"poiId":"B0FFF7HRQ1","poiLocation":"119.924750,42.281377","poiLng":"119.924750","poiLat":"42.281377","poiName":"龙熙园小区15号楼","poiType":"地名地址信息;门牌信息;楼栋号","poiAddress":"百柳街东150米","poiBounds":"null","poiPcode":"150000","poiPname":"内蒙古自治区","poiCitycode":"0476","poiCityname":"赤峰市","poiAdcode":"150430","poiAdname":"敖汉旗","poiRegion":"内蒙古自治区/赤峰市/敖汉旗","poiVillage":"B0FFF6X4KQ"},{"poiId":"B0FFF7HRQ0","poiLocation":"119.924983,42.281571","poiLng":"119.924983","poiLat":"42.281571","poiName":"龙熙园小区12号楼","poiType":"地名地址信息;门牌信息;楼栋号","poiAddress":"百柳街东150米","poiBounds":"null","poiPcode":"150000","poiPname":"内蒙古自治区","poiCitycode":"0476","poiCityname":"赤峰市","poiAdcode":"150430","poiAdname":"敖汉旗","poiRegion":"内蒙古自治区/赤峰市/敖汉旗","poiVillage":"B0FFF6X4KQ"},{"poiId":"B0FFF7HRPZ","poiLocation":"119.924699,42.281081","poiLng":"119.924699","poiLat":"42.281081","poiName":"龙熙园小区17号楼","poiType":"地名地址信息;门牌信息;楼栋号","poiAddress":"新化路北150米","poiBounds":"null","poiPcode":"150000","poiPname":"内蒙古自治区","poiCitycode":"0476","poiCityname":"赤峰市","poiAdcode":"150430","poiAdname":"敖汉旗","poiRegion":"内蒙古自治区/赤峰市/敖汉旗","poiVillage":"B0FFF6X4KQ"},{"poiId":"B0FFF78R9T","poiLocation":"119.919559,42.286135","poiLng":"119.919559","poiLat":"42.286135","poiName":"理想家园13号楼","poiType":"地名地址信息;门牌信息;楼栋号","poiAddress":"敖汉旗","poiBounds":"null","poiPcode":"150000","poiPname":"内蒙古自治区","poiCitycode":"0476","poiCityname":"赤峰市","poiAdcode":"150430","poiAdname":"敖汉旗","poiRegion":"内蒙古自治区/赤峰市/敖汉旗","poiVillage":"B01DC0I4Z0"},{"poiId":"B0FFF77ZCD","poiLocation":"119.919354,42.284126","poiLng":"119.919354","poiLat":"42.284126","poiName":"兴隆佳苑10号楼","poiType":"地名地址信息;门牌信息;楼栋号","poiAddress":"敖汉旗","poiBounds":"null","poiPcode":"150000","poiPname":"内蒙古自治区","poiCitycode":"0476","poiCityname":"赤峰市","poiAdcode":"150430","poiAdname":"敖汉旗","poiRegion":"内蒙古自治区/赤峰市/敖汉旗","poiVillage":"B0FFFGZVBK"},{"poiId":"B0FFF77ZAZ","poiLocation":"119.919851,42.284871","poiLng":"119.919851","poiLat":"42.284871","poiName":"兴隆佳苑6号楼","poiType":"地名地址信息;门牌信息;楼栋号","poiAddress":"敖汉旗","poiBounds":"null","poiPcode":"150000","poiPname":"内蒙古自治区","poiCitycode":"0476","poiCityname":"赤峰市","poiAdcode":"150430","poiAdname":"敖汉旗","poiRegion":"内蒙古自治区/赤峰市/敖汉旗","poiVillage":"B0FFFGZVBK"},{"poiId":"B0FFF77ZAN","poiLocation":"119.919938,42.285129","poiLng":"119.919938","poiLat":"42.285129","poiName":"兴隆佳苑3号楼","poiType":"地名地址信息;门牌信息;楼栋号","poiAddress":"敖汉旗","poiBounds":"null","poiPcode":"150000","poiPname":"内蒙古自治区","poiCitycode":"0476","poiCityname":"赤峰市","poiAdcode":"150430","poiAdname":"敖汉旗","poiRegion":"内蒙古自治区/赤峰市/敖汉旗","poiVillage":"B0FFFGZVBK"},{"poiId":"B0FFF0LNY4","poiLocation":"119.924683,42.280942","poiLng":"119.924683","poiLat":"42.280942","poiName":"龙熙园小区18号楼","poiType":"地名地址信息;门牌信息;楼栋号","poiAddress":"新化路北100米","poiBounds":"null","poiPcode":"150000","poiPname":"内蒙古自治区","poiCitycode":"0476","poiCityname":"赤峰市","poiAdcode":"150430","poiAdname":"敖汉旗","poiRegion":"内蒙古自治区/赤峰市/敖汉旗","poiVillage":"B0FFF6X4KQ"},{"poiId":"B0FFF0LNW7","poiLocation":"119.924458,42.282312","poiLng":"119.924458","poiLat":"42.282312","poiName":"龙熙园小区1号楼","poiType":"地名地址信息;门牌信息;楼栋号","poiAddress":"百柳街东100米","poiBounds":"null","poiPcode":"150000","poiPname":"内蒙古自治区","poiCitycode":"0476","poiCityname":"赤峰市","poiAdcode":"150430","poiAdname":"敖汉旗","poiRegion":"内蒙古自治区/赤峰市/敖汉旗","poiVillage":"B0FFF6X4KQ"},{"poiId":"B0FFF0LNW3","poiLocation":"119.920089,42.287134","poiLng":"119.920089","poiLat":"42.287134","poiName":"理想家园5号楼","poiType":"地名地址信息;门牌信息;楼栋号","poiAddress":"新惠镇新惠路理想家园","poiBounds":"null","poiPcode":"150000","poiPname":"内蒙古自治区","poiCitycode":"0476","poiCityname":"赤峰市","poiAdcode":"150430","poiAdname":"敖汉旗","poiRegion":"内蒙古自治区/赤峰市/敖汉旗","poiVillage":"B01DC0I4Z0"},{"poiId":"B0FFKZY5PJ","poiLocation":"119.922140,42.288447","poiLng":"119.922140","poiLat":"42.288447","poiName":"敖汉旗绿珠花园11号楼","poiType":"地名地址信息;门牌信息;楼栋号","poiAddress":"绿珠花园11号楼","poiBounds":"null","poiPcode":"150000","poiPname":"内蒙古自治区","poiCitycode":"0476","poiCityname":"赤峰市","poiAdcode":"150430","poiAdname":"敖汉旗","poiRegion":"内蒙古自治区/赤峰市/敖汉旗","poiVillage":"B01DC0JEJI"},{"poiId":"B0FFKG26MP","poiLocation":"119.913713,42.279737","poiLng":"119.913713","poiLat":"42.279737","poiName":"丽水河畔3号楼","poiType":"地名地址信息;门牌信息;楼栋号","poiAddress":"敖汉旗","poiBounds":"null","poiPcode":"150000","poiPname":"内蒙古自治区","poiCitycode":"0476","poiCityname":"赤峰市","poiAdcode":"150430","poiAdname":"敖汉旗","poiRegion":"内蒙古自治区/赤峰市/敖汉旗","poiVillage":"B0FFGDBD7C"},{"poiId":"B0FFKG2678","poiLocation":"119.913774,42.280043","poiLng":"119.913774","poiLat":"42.280043","poiName":"丽水河畔2号楼","poiType":"地名地址信息;门牌信息;楼栋号","poiAddress":"敖汉旗","poiBounds":"null","poiPcode":"150000","poiPname":"内蒙古自治区","poiCitycode":"0476","poiCityname":"赤峰市","poiAdcode":"150430","poiAdname":"敖汉旗","poiRegion":"内蒙古自治区/赤峰市/敖汉旗","poiVillage":"B0FFGDBD7C"},{"poiId":"B0FFK8HV0Y","poiLocation":"119.900820,42.295378","poiLng":"119.900820","poiLat":"42.295378","poiName":"敖汉旗公园小区5号楼","poiType":"地名地址信息;门牌信息;楼栋号","poiAddress":"公园小区5号楼","poiBounds":"null","poiPcode":"150000","poiPname":"内蒙古自治区","poiCitycode":"0476","poiCityname":"赤峰市","poiAdcode":"150430","poiAdname":"敖汉旗","poiRegion":"内蒙古自治区/赤峰市/敖汉旗","poiVillage":"B01DC15X2V"},{"poiId":"B0FFK8DCKN","poiLocation":"119.902068,42.282504","poiLng":"119.902068","poiLat":"42.282504","poiName":"富都家园9号楼","poiType":"地名地址信息;门牌信息;楼栋号","poiAddress":"敖汉旗","poiBounds":"null","poiPcode":"150000","poiPname":"内蒙古自治区","poiCitycode":"0476","poiCityname":"赤峰市","poiAdcode":"150430","poiAdname":"敖汉旗","poiRegion":"内蒙古自治区/赤峰市/敖汉旗","poiVillage":"B01DC0I4AV"},{"poiId":"B0FFK0MQZT","poiLocation":"119.898920,42.276284","poiLng":"119.898920","poiLat":"42.276284","poiName":"阳光华府6号楼","poiType":"地名地址信息;门牌信息;楼栋号","poiAddress":"敖汉旗","poiBounds":"null","poiPcode":"150000","poiPname":"内蒙古自治区","poiCitycode":"0476","poiCityname":"赤峰市","poiAdcode":"150430","poiAdname":"敖汉旗","poiRegion":"内蒙古自治区/赤峰市/敖汉旗","poiVillage":""},{"poiId":"B0FFKG2MT7","poiLocation":"119.924130,42.285256","poiLng":"119.924130","poiLat":"42.285256","poiName":"盛泽园小区3号楼","poiType":"地名地址信息;门牌信息;楼栋号","poiAddress":"敖汉旗","poiBounds":"null","poiPcode":"150000","poiPname":"内蒙古自治区","poiCitycode":"0476","poiCityname":"赤峰市","poiAdcode":"150430","poiAdname":"敖汉旗","poiRegion":"内蒙古自治区/赤峰市/敖汉旗","poiVillage":"B0FFG0HQH5"},{"poiId":"B0FFK8HQTV","poiLocation":"119.909546,42.286545","poiLng":"119.909546","poiLat":"42.286545","poiName":"武安小区22号楼","poiType":"地名地址信息;门牌信息;楼栋号","poiAddress":"敖汉旗","poiBounds":"null","poiPcode":"150000","poiPname":"内蒙古自治区","poiCitycode":"0476","poiCityname":"赤峰市","poiAdcode":"150430","poiAdname":"敖汉旗","poiRegion":"内蒙古自治区/赤峰市/敖汉旗","poiVillage":"B01DC0I48P"}]