[{"poiId":"B0FFG6L89S","poiLocation":"118.950407,42.273607","poiLng":"118.950407","poiLat":"42.273607","poiName":"港龙邮电小区","poiType":"商务住宅;住宅区;住宅小区","poiAddress":"三道西街南150米","poiBounds":"null","poiPcode":"150000","poiPname":"内蒙古自治区","poiCitycode":"0476","poiCityname":"赤峰市","poiAdcode":"150402","poiAdname":"红山区","poiRegion":"内蒙古自治区赤峰市红山区"},{"poiId":"B0FFG4UZAO","poiLocation":"118.972342,42.272105","poiLng":"118.972342","poiLat":"42.272105","poiName":"陶瓷小区","poiType":"商务住宅;住宅区;住宅小区","poiAddress":"四中胡同与长青街交叉口西南150米","poiBounds":"null","poiPcode":"150000","poiPname":"内蒙古自治区","poiCitycode":"0476","poiCityname":"赤峰市","poiAdcode":"150402","poiAdname":"红山区","poiRegion":"内蒙古自治区赤峰市红山区"},{"poiId":"B0FFFJVFFQ","poiLocation":"118.959637,42.266593","poiLng":"118.959637","poiLat":"42.266593","poiName":"市委二院","poiType":"商务住宅;住宅区;住宅小区","poiAddress":"长青街附近","poiBounds":"null","poiPcode":"150000","poiPname":"内蒙古自治区","poiCitycode":"0476","poiCityname":"赤峰市","poiAdcode":"150402","poiAdname":"红山区","poiRegion":"内蒙古自治区赤峰市红山区"},{"poiId":"B0FFG4UW2O","poiLocation":"118.969861,42.264255","poiLng":"118.969861","poiLat":"42.264255","poiName":"国税小区(红星路)","poiType":"商务住宅;住宅区;住宅小区","poiAddress":"红星路东200米","poiBounds":"null","poiPcode":"150000","poiPname":"内蒙古自治区","poiCitycode":"0476","poiCityname":"赤峰市","poiAdcode":"150402","poiAdname":"红山区","poiRegion":"内蒙古自治区赤峰市红山区"},{"poiId":"B0FFG4UWNR","poiLocation":"118.97038,42.286477","poiLng":"118.97038","poiLat":"42.286477","poiName":"红山区技校小区","poiType":"商务住宅;住宅区;住宅小区","poiAddress":"北环路17-16号附近","poiBounds":"null","poiPcode":"150000","poiPname":"内蒙古自治区","poiCitycode":"0476","poiCityname":"赤峰市","poiAdcode":"150402","poiAdname":"红山区","poiRegion":"内蒙古自治区赤峰市红山区"},{"poiId":"B0FFG739O7","poiLocation":"118.967211,42.270806","poiLng":"118.967211","poiLat":"42.270806","poiName":"民族小区(长青街)","poiType":"商务住宅;住宅区;住宅小区","poiAddress":"长青街87号附近","poiBounds":"null","poiPcode":"150000","poiPname":"内蒙古自治区","poiCitycode":"0476","poiCityname":"赤峰市","poiAdcode":"150402","poiAdname":"红山区","poiRegion":"内蒙古自治区赤峰市红山区"},{"poiId":"B0FFG50DCW","poiLocation":"118.968707,42.265832","poiLng":"118.968707","poiLat":"42.265832","poiName":"红星小区(红星路)","poiType":"商务住宅;住宅区;住宅小区","poiAddress":"红星路东150米","poiBounds":"null","poiPcode":"150000","poiPname":"内蒙古自治区","poiCitycode":"0476","poiCityname":"赤峰市","poiAdcode":"150402","poiAdname":"红山区","poiRegion":"内蒙古自治区赤峰市红山区"},{"poiId":"B0FFFGZS4C","poiLocation":"118.926989,42.22903","poiLng":"118.926989","poiLat":"42.22903","poiName":"春城雅苑","poiType":"商务住宅;住宅区;住宅小区","poiAddress":"306国道附近","poiBounds":"null","poiPcode":"150000","poiPname":"内蒙古自治区","poiCitycode":"0476","poiCityname":"赤峰市","poiAdcode":"150402","poiAdname":"红山区","poiRegion":"内蒙古自治区赤峰市红山区"},{"poiId":"B0FFFYSL7I","poiLocation":"118.954762,42.253084","poiLng":"118.954762","poiLat":"42.253084","poiName":"欧风帝景","poiType":"商务住宅;住宅区;住宅小区","poiAddress":"园林南路","poiBounds":"null","poiPcode":"150000","poiPname":"内蒙古自治区","poiCitycode":"0476","poiCityname":"赤峰市","poiAdcode":"150402","poiAdname":"红山区","poiRegion":"内蒙古自治区赤峰市红山区"},{"poiId":"B0FFG5033O","poiLocation":"118.957482,42.25912","poiLng":"118.957482","poiLat":"42.25912","poiName":"辽通房产段","poiType":"商务住宅;住宅区;住宅小区","poiAddress":"昭乌达路与解放街交叉口西南200米","poiBounds":"null","poiPcode":"150000","poiPname":"内蒙古自治区","poiCitycode":"0476","poiCityname":"赤峰市","poiAdcode":"150402","poiAdname":"红山区","poiRegion":"内蒙古自治区赤峰市红山区"},{"poiId":"B0FFG50DF1","poiLocation":"118.974473,42.26513","poiLng":"118.974473","poiLat":"42.26513","poiName":"红星王府","poiType":"商务住宅;住宅区;住宅小区","poiAddress":"火花路20号附近","poiBounds":"null","poiPcode":"150000","poiPname":"内蒙古自治区","poiCitycode":"0476","poiCityname":"赤峰市","poiAdcode":"150402","poiAdname":"红山区","poiRegion":"内蒙古自治区赤峰市红山区"},{"poiId":"B0FFF9QDXH","poiLocation":"118.954114,42.301147","poiLng":"118.954114","poiLat":"42.301147","poiName":"金宇国际C区","poiType":"商务住宅;住宅区;住宅小区","poiAddress":"清河北路","poiBounds":"null","poiPcode":"150000","poiPname":"内蒙古自治区","poiCitycode":"0476","poiCityname":"赤峰市","poiAdcode":"150402","poiAdname":"红山区","poiRegion":"内蒙古自治区赤峰市红山区"},{"poiId":"B0FFG50DEJ","poiLocation":"118.982746,42.279385","poiLng":"118.982746","poiLat":"42.279385","poiName":"富华天地1期","poiType":"商务住宅;住宅区;住宅小区","poiAddress":"哈达东街北100米","poiBounds":"null","poiPcode":"150000","poiPname":"内蒙古自治区","poiCitycode":"0476","poiCityname":"赤峰市","poiAdcode":"150402","poiAdname":"红山区","poiRegion":"内蒙古自治区赤峰市红山区"},{"poiId":"B0FFG6P9ZM","poiLocation":"118.947271,42.257662","poiLng":"118.947271","poiLat":"42.257662","poiName":"春苑家园","poiType":"商务住宅;住宅区;住宅小区","poiAddress":"解放街70号","poiBounds":"null","poiPcode":"150000","poiPname":"内蒙古自治区","poiCitycode":"0476","poiCityname":"赤峰市","poiAdcode":"150402","poiAdname":"红山区","poiRegion":"内蒙古自治区赤峰市红山区"},{"poiId":"B0FFF35O79","poiLocation":"118.965343,42.294131","poiLng":"118.965343","poiLat":"42.294131","poiName":"龙山鸿郡","poiType":"商务住宅;住宅区;住宅小区","poiAddress":"桥北街道清河路","poiBounds":"null","poiPcode":"150000","poiPname":"内蒙古自治区","poiCitycode":"0476","poiCityname":"赤峰市","poiAdcode":"150402","poiAdname":"红山区","poiRegion":"内蒙古自治区赤峰市红山区"},{"poiId":"B0FFG6NYJ0","poiLocation":"118.982992,42.282448","poiLng":"118.982992","poiLat":"42.282448","poiName":"富华天地2期","poiType":"商务住宅;住宅区;住宅小区","poiAddress":"三道东街与八小胡同交叉口东150米","poiBounds":"null","poiPcode":"150000","poiPname":"内蒙古自治区","poiCitycode":"0476","poiCityname":"赤峰市","poiAdcode":"150402","poiAdname":"红山区","poiRegion":"内蒙古自治区赤峰市红山区"},{"poiId":"B0FFFGZSUT","poiLocation":"118.978528,42.276978","poiLng":"118.978528","poiLat":"42.276978","poiName":"美林华苑","poiType":"商务住宅;住宅区;住宅小区","poiAddress":"哈达街清和路东同兴市场对面","poiBounds":"null","poiPcode":"150000","poiPname":"内蒙古自治区","poiCitycode":"0476","poiCityname":"赤峰市","poiAdcode":"150402","poiAdname":"红山区","poiRegion":"内蒙古自治区赤峰市红山区"},{"poiId":"B0FFFGZMWX","poiLocation":"118.960724,42.290188","poiLng":"118.960724","poiLat":"42.290188","poiName":"龙湖湾(北大桥路)","poiType":"商务住宅;住宅区;住宅小区","poiAddress":"桥北大街43号","poiBounds":"null","poiPcode":"150000","poiPname":"内蒙古自治区","poiCitycode":"0476","poiCityname":"赤峰市","poiAdcode":"150402","poiAdname":"红山区","poiRegion":"内蒙古自治区赤峰市红山区"},{"poiId":"B01DC0JKN1","poiLocation":"118.962284,42.276118","poiLng":"118.962284","poiLat":"42.276118","poiName":"松州小区","poiType":"商务住宅;住宅区;住宅小区","poiAddress":"五道街与松州巷交叉口东南100米","poiBounds":"null","poiPcode":"150000","poiPname":"内蒙古自治区","poiCitycode":"0476","poiCityname":"赤峰市","poiAdcode":"150402","poiAdname":"红山区","poiRegion":"内蒙古自治区赤峰市红山区"},{"poiId":"B0FFFH0HCS","poiLocation":"118.953239,42.259731","poiLng":"118.953239","poiLat":"42.259731","poiName":"昭乌达丽都","poiType":"商务住宅;住宅区;住宅小区","poiAddress":"园林路与解放街交叉口东北150米","poiBounds":"null","poiPcode":"150000","poiPname":"内蒙古自治区","poiCitycode":"0476","poiCityname":"赤峰市","poiAdcode":"150402","poiAdname":"红山区","poiRegion":"内蒙古自治区赤峰市红山区"},{"poiId":"B0FFFZNGVQ","poiLocation":"118.946992,42.262115","poiLng":"118.946992","poiLat":"42.262115","poiName":"八角楼小区","poiType":"商务住宅;住宅区;住宅小区","poiAddress":"","poiBounds":"null","poiPcode":"150000","poiPname":"内蒙古自治区","poiCitycode":"0476","poiCityname":"赤峰市","poiAdcode":"150402","poiAdname":"红山区","poiRegion":"内蒙古自治区赤峰市红山区"},{"poiId":"B0FFFZPBWJ","poiLocation":"118.963491,42.261786","poiLng":"118.963491","poiLat":"42.261786","poiName":"普瑞小区","poiType":"商务住宅;住宅区;住宅小区","poiAddress":"新华路与解放街交叉口东南50米","poiBounds":"null","poiPcode":"150000","poiPname":"内蒙古自治区","poiCitycode":"0476","poiCityname":"赤峰市","poiAdcode":"150402","poiAdname":"红山区","poiRegion":"内蒙古自治区赤峰市红山区"},{"poiId":"B0FFI78ZOV","poiLocation":"118.918138,42.255275","poiLng":"118.918138","poiLat":"42.255275","poiName":"万达华城C区","poiType":"商务住宅;住宅区;住宅小区","poiAddress":"西拉沐沦大街西200米","poiBounds":"null","poiPcode":"150000","poiPname":"内蒙古自治区","poiCitycode":"0476","poiCityname":"赤峰市","poiAdcode":"150402","poiAdname":"红山区","poiRegion":"内蒙古自治区赤峰市红山区"},{"poiId":"B0FFFZNGUB","poiLocation":"118.957093,42.272862","poiLng":"118.957093","poiLat":"42.272862","poiName":"鑫源小区","poiType":"商务住宅;住宅区;住宅小区","poiAddress":"哈达西街87号附近","poiBounds":"null","poiPcode":"150000","poiPname":"内蒙古自治区","poiCitycode":"0476","poiCityname":"赤峰市","poiAdcode":"150402","poiAdname":"红山区","poiRegion":"内蒙古自治区赤峰市红山区"},{"poiId":"B0FFFZPBXJ","poiLocation":"118.971930,42.287200","poiLng":"118.971930","poiLat":"42.287200","poiName":"安顺小区","poiType":"商务住宅;住宅区;住宅小区","poiAddress":"清河路133附近","poiBounds":"null","poiPcode":"150000","poiPname":"内蒙古自治区","poiCitycode":"0476","poiCityname":"赤峰市","poiAdcode":"150402","poiAdname":"红山区","poiRegion":"内蒙古自治区赤峰市红山区"},{"poiId":"B0FFI69V8M","poiLocation":"118.927984,42.228246","poiLng":"118.927984","poiLat":"42.228246","poiName":"春城雅苑B区","poiType":"商务住宅;住宅区;住宅小区","poiAddress":"306国道附近","poiBounds":"null","poiPcode":"150000","poiPname":"内蒙古自治区","poiCitycode":"0476","poiCityname":"赤峰市","poiAdcode":"150402","poiAdname":"红山区","poiRegion":"内蒙古自治区赤峰市红山区"},{"poiId":"B0FFI0XL9Q","poiLocation":"118.916249,42.233495","poiLng":"118.916249","poiLat":"42.233495","poiName":"红山郡二期","poiType":"商务住宅;住宅区;住宅小区","poiAddress":"首地红山郡","poiBounds":"null","poiPcode":"150000","poiPname":"内蒙古自治区","poiCitycode":"0476","poiCityname":"赤峰市","poiAdcode":"150402","poiAdname":"红山区","poiRegion":"内蒙古自治区赤峰市红山区"},{"poiId":"B0FFFZNGTZ","poiLocation":"118.983500,42.283320","poiLng":"118.983500","poiLat":"42.283320","poiName":"东园子小区","poiType":"商务住宅;住宅区;住宅小区","poiAddress":"三道街七中对面","poiBounds":"null","poiPcode":"150000","poiPname":"内蒙古自治区","poiCitycode":"0476","poiCityname":"赤峰市","poiAdcode":"150402","poiAdname":"红山区","poiRegion":"内蒙古自治区赤峰市红山区"},{"poiId":"B0FFH47M6F","poiLocation":"118.957245,42.266985","poiLng":"118.957245","poiLat":"42.266985","poiName":"都市花园小区","poiType":"商务住宅;住宅区;住宅小区","poiAddress":"昭乌达路42号附近","poiBounds":"null","poiPcode":"150000","poiPname":"内蒙古自治区","poiCitycode":"0476","poiCityname":"赤峰市","poiAdcode":"150402","poiAdname":"红山区","poiRegion":"内蒙古自治区赤峰市红山区"},{"poiId":"B0FFI6Z841","poiLocation":"118.927069,42.329951","poiLng":"118.927069","poiLat":"42.329951","poiName":"金融物流港小区","poiType":"商务住宅;住宅区;住宅小区","poiAddress":"","poiBounds":"null","poiPcode":"150000","poiPname":"内蒙古自治区","poiCitycode":"0476","poiCityname":"赤峰市","poiAdcode":"150402","poiAdname":"红山区","poiRegion":"内蒙古自治区赤峰市红山区"},{"poiId":"B0FFHP5SME","poiLocation":"118.973986,42.286245","poiLng":"118.973986","poiLat":"42.286245","poiName":"北方药厂家属楼","poiType":"商务住宅;住宅区;住宅小区","poiAddress":"","poiBounds":"null","poiPcode":"150000","poiPname":"内蒙古自治区","poiCitycode":"0476","poiCityname":"赤峰市","poiAdcode":"150402","poiAdname":"红山区","poiRegion":"内蒙古自治区赤峰市红山区"},{"poiId":"B0FFHI4SIO","poiLocation":"118.9486,42.257631","poiLng":"118.9486","poiLat":"42.257631","poiName":"金百合","poiType":"商务住宅;住宅区;住宅小区","poiAddress":"西城街道钢铁街","poiBounds":"null","poiPcode":"150000","poiPname":"内蒙古自治区","poiCitycode":"0476","poiCityname":"赤峰市","poiAdcode":"150402","poiAdname":"红山区","poiRegion":"内蒙古自治区赤峰市红山区"},{"poiId":"B0FFHEFQ6Z","poiLocation":"118.956509,42.264743","poiLng":"118.956509","poiLat":"42.264743","poiName":"都市家园","poiType":"商务住宅;住宅区;住宅小区","poiAddress":"昭乌达路与钢铁街交叉口南100米","poiBounds":"null","poiPcode":"150000","poiPname":"内蒙古自治区","poiCitycode":"0476","poiCityname":"赤峰市","poiAdcode":"150402","poiAdname":"红山区","poiRegion":"内蒙古自治区赤峰市红山区"},{"poiId":"B0FFHOL0MC","poiLocation":"118.997226,42.292033","poiLng":"118.997226","poiLat":"42.292033","poiName":"绿景小区","poiType":"商务住宅;住宅区;住宅小区","poiAddress":"红山路与红旗路交叉口东南200米长青五金附近","poiBounds":"null","poiPcode":"150000","poiPname":"内蒙古自治区","poiCitycode":"0476","poiCityname":"赤峰市","poiAdcode":"150402","poiAdname":"红山区","poiRegion":"内蒙古自治区赤峰市红山区"},{"poiId":"B0FFHJRF6F","poiLocation":"118.949878,42.246989","poiLng":"118.949878","poiLat":"42.246989","poiName":"南苑绿景","poiType":"商务住宅;住宅区;住宅小区","poiAddress":"","poiBounds":"null","poiPcode":"150000","poiPname":"内蒙古自治区","poiCitycode":"0476","poiCityname":"赤峰市","poiAdcode":"150402","poiAdname":"红山区","poiRegion":"内蒙古自治区赤峰市红山区"},{"poiId":"B0FFJNJUG0","poiLocation":"118.956895,42.270521","poiLng":"118.956895","poiLat":"42.270521","poiName":"长青五金小区4号楼","poiType":"商务住宅;住宅区;住宅小区","poiAddress":"长青街北150米","poiBounds":"null","poiPcode":"150000","poiPname":"内蒙古自治区","poiCitycode":"0476","poiCityname":"赤峰市","poiAdcode":"150402","poiAdname":"红山区","poiRegion":"内蒙古自治区赤峰市红山区"},{"poiId":"B0FFHDS1I4","poiLocation":"118.946495,42.295418","poiLng":"118.946495","poiLat":"42.295418","poiName":"荷风水岸1期","poiType":"商务住宅;住宅区;住宅小区","poiAddress":"桥北街","poiBounds":"null","poiPcode":"150000","poiPname":"内蒙古自治区","poiCitycode":"0476","poiCityname":"赤峰市","poiAdcode":"150402","poiAdname":"红山区","poiRegion":"内蒙古自治区赤峰市红山区"},{"poiId":"B0FFJLZTRU","poiLocation":"118.970866,42.273512","poiLng":"118.970866","poiLat":"42.273512","poiName":"长青小区52号楼","poiType":"商务住宅;住宅区;住宅小区","poiAddress":"火花路与长青街交叉口东北200米","poiBounds":"null","poiPcode":"150000","poiPname":"内蒙古自治区","poiCitycode":"0476","poiCityname":"赤峰市","poiAdcode":"150402","poiAdname":"红山区","poiRegion":"内蒙古自治区赤峰市红山区"},{"poiId":"B0FFHHDA9R","poiLocation":"118.926421,42.245545","poiLng":"118.926421","poiLat":"42.245545","poiName":"蟾越社区","poiType":"商务住宅;住宅区;住宅小区","poiAddress":"G306(绥克线)","poiBounds":"null","poiPcode":"150000","poiPname":"内蒙古自治区","poiCitycode":"0476","poiCityname":"赤峰市","poiAdcode":"150402","poiAdname":"红山区","poiRegion":"内蒙古自治区赤峰市红山区"},{"poiId":"B0FFHJ9SY5","poiLocation":"118.920529,42.232872","poiLng":"118.920529","poiLat":"42.232872","poiName":"西城尚景小区(建设中)","poiType":"商务住宅;住宅区;住宅小区","poiAddress":"","poiBounds":"null","poiPcode":"150000","poiPname":"内蒙古自治区","poiCitycode":"0476","poiCityname":"赤峰市","poiAdcode":"150402","poiAdname":"红山区","poiRegion":"内蒙古自治区赤峰市红山区"},{"poiId":"B0FFI8LM71","poiLocation":"118.963599,42.270452","poiLng":"118.963599","poiLat":"42.270452","poiName":"新华小区(北门)","poiType":"商务住宅;住宅区;住宅小区","poiAddress":"公园西胡同与长青街交叉口南50米","poiBounds":"null","poiPcode":"150000","poiPname":"内蒙古自治区","poiCitycode":"0476","poiCityname":"赤峰市","poiAdcode":"150402","poiAdname":"红山区","poiRegion":"内蒙古自治区赤峰市红山区"},{"poiId":"B0FFH0ECYQ","poiLocation":"118.942590,42.267359","poiLng":"118.942590","poiLat":"42.267359","poiName":"党校小区","poiType":"商务住宅;住宅区;住宅小区","poiAddress":"海关胡同与长青街交叉口西北200米","poiBounds":"null","poiPcode":"150000","poiPname":"内蒙古自治区","poiCitycode":"0476","poiCityname":"赤峰市","poiAdcode":"150402","poiAdname":"红山区","poiRegion":"内蒙古自治区赤峰市红山区"},{"poiId":"B0FFG8CNSQ","poiLocation":"118.961075,42.29354","poiLng":"118.961075","poiLat":"42.29354","poiName":"钓鱼台C区","poiType":"商务住宅;住宅区;住宅小区","poiAddress":"桥北新区桥北红山区政府附近","poiBounds":"null","poiPcode":"150000","poiPname":"内蒙古自治区","poiCitycode":"0476","poiCityname":"赤峰市","poiAdcode":"150402","poiAdname":"红山区","poiRegion":"内蒙古自治区赤峰市红山区"},{"poiId":"B0FFHDVWRV","poiLocation":"118.964399,42.261205","poiLng":"118.964399","poiLat":"42.261205","poiName":"紫竹园小区","poiType":"商务住宅;住宅区;住宅小区","poiAddress":"新华路与解放街交叉口东南150米","poiBounds":"null","poiPcode":"150000","poiPname":"内蒙古自治区","poiCitycode":"0476","poiCityname":"赤峰市","poiAdcode":"150402","poiAdname":"红山区","poiRegion":"内蒙古自治区赤峰市红山区"},{"poiId":"B0FFI36G83","poiLocation":"118.948085,42.249369","poiLng":"118.948085","poiLat":"42.249369","poiName":"富润家园","poiType":"商务住宅;住宅区;住宅小区","poiAddress":"","poiBounds":"null","poiPcode":"150000","poiPname":"内蒙古自治区","poiCitycode":"0476","poiCityname":"赤峰市","poiAdcode":"150402","poiAdname":"红山区","poiRegion":"内蒙古自治区赤峰市红山区"},{"poiId":"B0FFI7TF5X","poiLocation":"118.972129,42.278845","poiLng":"118.972129","poiLat":"42.278845","poiName":"天合阳光城C区","poiType":"商务住宅;住宅区;住宅小区","poiAddress":"太平街胡同与五道街交叉口北10米","poiBounds":"null","poiPcode":"150000","poiPname":"内蒙古自治区","poiCitycode":"0476","poiCityname":"赤峰市","poiAdcode":"150402","poiAdname":"红山区","poiRegion":"内蒙古自治区赤峰市红山区"},{"poiId":"B0FFIB97BG","poiLocation":"118.963730,42.267136","poiLng":"118.963730","poiLat":"42.267136","poiName":"新华小区(南4门)","poiType":"商务住宅;住宅区;住宅小区","poiAddress":"钢铁街78-1号附近","poiBounds":"null","poiPcode":"150000","poiPname":"内蒙古自治区","poiCitycode":"0476","poiCityname":"赤峰市","poiAdcode":"150402","poiAdname":"红山区","poiRegion":"内蒙古自治区赤峰市红山区"},{"poiId":"B01DC15LBB","poiLocation":"118.950134,42.256092","poiLng":"118.950134","poiLat":"42.256092","poiName":"站西社区","poiType":"商务住宅;住宅区;住宅小区","poiAddress":"薛家胡同与解放街交叉口南200米","poiBounds":"null","poiPcode":"150000","poiPname":"内蒙古自治区","poiCitycode":"0476","poiCityname":"赤峰市","poiAdcode":"150402","poiAdname":"红山区","poiRegion":"内蒙古自治区赤峰市红山区"},{"poiId":"B0FFI7P7EH","poiLocation":"118.965896,42.259919","poiLng":"118.965896","poiLat":"42.259919","poiName":"军城菊香花园","poiType":"商务住宅;住宅区;住宅小区","poiAddress":"新华路与站前街交叉口东100米","poiBounds":"null","poiPcode":"150000","poiPname":"内蒙古自治区","poiCitycode":"0476","poiCityname":"赤峰市","poiAdcode":"150402","poiAdname":"红山区","poiRegion":"内蒙古自治区赤峰市红山区"},{"poiId":"B0FFI7ME83","poiLocation":"118.965075,42.258427","poiLng":"118.965075","poiLat":"42.258427","poiName":"赤峰行车公寓","poiType":"商务住宅;住宅区;住宅小区","poiAddress":"铁南大街","poiBounds":"null","poiPcode":"150000","poiPname":"内蒙古自治区","poiCitycode":"0476","poiCityname":"赤峰市","poiAdcode":"150402","poiAdname":"红山区","poiRegion":"内蒙古自治区赤峰市红山区"},{"poiId":"B0FFFZPBVE","poiLocation":"118.963827,42.279253","poiLng":"118.963827","poiLat":"42.279253","poiName":"粮食小区","poiType":"商务住宅;住宅区;住宅小区","poiAddress":"火花路与三道街交汇处红山一小跟前","poiBounds":"null","poiPcode":"150000","poiPname":"内蒙古自治区","poiCitycode":"0476","poiCityname":"赤峰市","poiAdcode":"150402","poiAdname":"红山区","poiRegion":"内蒙古自治区赤峰市红山区"},{"poiId":"B0FFFZNGUZ","poiLocation":"118.965481,42.271451","poiLng":"118.965481","poiLat":"42.271451","poiName":"花溪小区","poiType":"商务住宅;住宅区;住宅小区","poiAddress":"长青街长青公园南面","poiBounds":"null","poiPcode":"150000","poiPname":"内蒙古自治区","poiCitycode":"0476","poiCityname":"赤峰市","poiAdcode":"150402","poiAdname":"红山区","poiRegion":"内蒙古自治区赤峰市红山区"},{"poiId":"B0FFIB97BJ","poiLocation":"118.951240,42.260750","poiLng":"118.951240","poiLat":"42.260750","poiName":"金百合东区(东2门)","poiType":"商务住宅;住宅区;住宅小区","poiAddress":"园林路51号","poiBounds":"null","poiPcode":"150000","poiPname":"内蒙古自治区","poiCitycode":"0476","poiCityname":"赤峰市","poiAdcode":"150402","poiAdname":"红山区","poiRegion":"内蒙古自治区赤峰市红山区"},{"poiId":"B0FFFZPBXE","poiLocation":"118.948192,42.269236","poiLng":"118.948192","poiLat":"42.269236","poiName":"公安四小区","poiType":"商务住宅;住宅区;住宅小区","poiAddress":"园林路105-1号附近","poiBounds":"null","poiPcode":"150000","poiPname":"内蒙古自治区","poiCitycode":"0476","poiCityname":"赤峰市","poiAdcode":"150402","poiAdname":"红山区","poiRegion":"内蒙古自治区赤峰市红山区"},{"poiId":"B0FFIZFE73","poiLocation":"118.977184,42.27017","poiLng":"118.977184","poiLat":"42.27017","poiName":"环宇雅居","poiType":"商务住宅;住宅区;住宅小区","poiAddress":"清河路11-2号附近","poiBounds":"null","poiPcode":"150000","poiPname":"内蒙古自治区","poiCitycode":"0476","poiCityname":"赤峰市","poiAdcode":"150402","poiAdname":"红山区","poiRegion":"内蒙古自治区赤峰市红山区"},{"poiId":"B0FFI78U7E","poiLocation":"118.945496,42.300334","poiLng":"118.945496","poiLat":"42.300334","poiName":"利丰花园","poiType":"商务住宅;住宅区;住宅小区","poiAddress":"赤锡路西150米","poiBounds":"null","poiPcode":"150000","poiPname":"内蒙古自治区","poiCitycode":"0476","poiCityname":"赤峰市","poiAdcode":"150402","poiAdname":"红山区","poiRegion":"内蒙古自治区赤峰市红山区"},{"poiId":"B0FFFZNGV2","poiLocation":"118.947711,42.269956","poiLng":"118.947711","poiLat":"42.269956","poiName":"建设银行小区","poiType":"商务住宅;住宅区;住宅小区","poiAddress":"园林路","poiBounds":"null","poiPcode":"150000","poiPname":"内蒙古自治区","poiCitycode":"0476","poiCityname":"赤峰市","poiAdcode":"150402","poiAdname":"红山区","poiRegion":"内蒙古自治区赤峰市红山区"},{"poiId":"B0FFFZNGSU","poiLocation":"118.968201,42.264179","poiLng":"118.968201","poiLat":"42.264179","poiName":"水泵厂家属楼","poiType":"商务住宅;住宅区;住宅小区","poiAddress":"红星路供电局对面","poiBounds":"null","poiPcode":"150000","poiPname":"内蒙古自治区","poiCitycode":"0476","poiCityname":"赤峰市","poiAdcode":"150402","poiAdname":"红山区","poiRegion":"内蒙古自治区赤峰市红山区"},{"poiId":"B0FFHNM2WZ","poiLocation":"118.955051,42.275695","poiLng":"118.955051","poiLat":"42.275695","poiName":"蒙中小区","poiType":"商务住宅;住宅区;住宅小区","poiAddress":"同欲胡同","poiBounds":"null","poiPcode":"150000","poiPname":"内蒙古自治区","poiCitycode":"0476","poiCityname":"赤峰市","poiAdcode":"150402","poiAdname":"红山区","poiRegion":"内蒙古自治区赤峰市红山区"},{"poiId":"B0FFHJKAA3","poiLocation":"118.912663,42.251735","poiLng":"118.912663","poiLat":"42.251735","poiName":"万达小区A区","poiType":"商务住宅;住宅区;住宅小区","poiAddress":"西拉沐沦大街","poiBounds":"null","poiPcode":"150000","poiPname":"内蒙古自治区","poiCitycode":"0476","poiCityname":"赤峰市","poiAdcode":"150402","poiAdname":"红山区","poiRegion":"内蒙古自治区赤峰市红山区"},{"poiId":"B0FFH1OD10","poiLocation":"118.949505,42.297497","poiLng":"118.949505","poiLat":"42.297497","poiName":"金宇国际小区","poiType":"商务住宅;住宅区;住宅小区","poiAddress":"S205(赤锡路)","poiBounds":"null","poiPcode":"150000","poiPname":"内蒙古自治区","poiCitycode":"0476","poiCityname":"赤峰市","poiAdcode":"150402","poiAdname":"红山区","poiRegion":"内蒙古自治区赤峰市红山区"},{"poiId":"B0FFH1OH8V","poiLocation":"118.949338,42.304925","poiLng":"118.949338","poiLat":"42.304925","poiName":"万安小区","poiType":"商务住宅;住宅区;住宅小区","poiAddress":"","poiBounds":"null","poiPcode":"150000","poiPname":"内蒙古自治区","poiCitycode":"0476","poiCityname":"赤峰市","poiAdcode":"150402","poiAdname":"红山区","poiRegion":"内蒙古自治区赤峰市红山区"},{"poiId":"B0FFH8WDAQ","poiLocation":"118.914998,42.254064","poiLng":"118.914998","poiLat":"42.254064","poiName":"万达华城","poiType":"商务住宅;住宅区;住宅小区","poiAddress":"哈达街道西拉沐沦大街万达C区","poiBounds":"null","poiPcode":"150000","poiPname":"内蒙古自治区","poiCitycode":"0476","poiCityname":"赤峰市","poiAdcode":"150402","poiAdname":"红山区","poiRegion":"内蒙古自治区赤峰市红山区"},{"poiId":"B0FFHBT5SX","poiLocation":"118.914994,42.25406","poiLng":"118.914994","poiLat":"42.25406","poiName":"万达小区B区","poiType":"商务住宅;住宅区;住宅小区","poiAddress":"西拉沐沦大街赤峰万达广场附近","poiBounds":"null","poiPcode":"150000","poiPname":"内蒙古自治区","poiCitycode":"0476","poiCityname":"赤峰市","poiAdcode":"150402","poiAdname":"红山区","poiRegion":"内蒙古自治区赤峰市红山区"},{"poiId":"B0FFH98JTZ","poiLocation":"118.925922,42.229645","poiLng":"118.925922","poiLat":"42.229645","poiName":"春城雅苑A区","poiType":"商务住宅;住宅区;住宅小区","poiAddress":"","poiBounds":"null","poiPcode":"150000","poiPname":"内蒙古自治区","poiCitycode":"0476","poiCityname":"赤峰市","poiAdcode":"150402","poiAdname":"红山区","poiRegion":"内蒙古自治区赤峰市红山区"},{"poiId":"B0FFGM03BM","poiLocation":"118.944633,42.207888","poiLng":"118.944633","poiLat":"42.207888","poiName":"文钟安居小区","poiType":"商务住宅;住宅区;住宅小区","poiAddress":"文钟镇","poiBounds":"null","poiPcode":"150000","poiPname":"内蒙古自治区","poiCitycode":"0476","poiCityname":"赤峰市","poiAdcode":"150402","poiAdname":"红山区","poiRegion":"内蒙古自治区赤峰市红山区"},{"poiId":"B0FFGL4KZS","poiLocation":"118.943864,42.217292","poiLng":"118.943864","poiLat":"42.217292","poiName":"文钟新村","poiType":"商务住宅;住宅区;住宅小区","poiAddress":"","poiBounds":"null","poiPcode":"150000","poiPname":"内蒙古自治区","poiCitycode":"0476","poiCityname":"赤峰市","poiAdcode":"150402","poiAdname":"红山区","poiRegion":"内蒙古自治区赤峰市红山区"},{"poiId":"B0FFGLGLCF","poiLocation":"118.91105,42.329989","poiLng":"118.91105","poiLat":"42.329989","poiName":"天华北苑小区","poiType":"商务住宅;住宅区;住宅小区","poiAddress":"桥北物流园区北方汽车站","poiBounds":"null","poiPcode":"150000","poiPname":"内蒙古自治区","poiCitycode":"0476","poiCityname":"赤峰市","poiAdcode":"150402","poiAdname":"红山区","poiRegion":"内蒙古自治区赤峰市红山区"},{"poiId":"B01DC0JFC3","poiLocation":"118.971078,42.288012","poiLng":"118.971078","poiLat":"42.288012","poiName":"天元(北环路)","poiType":"商务住宅;住宅区;住宅小区|购物服务;购物相关场所;购物相关场所","poiAddress":"北环路与清河路交叉口西150米","poiBounds":"null","poiPcode":"150000","poiPname":"内蒙古自治区","poiCitycode":"0476","poiCityname":"赤峰市","poiAdcode":"150402","poiAdname":"红山区","poiRegion":"内蒙古自治区赤峰市红山区"},{"poiId":"B0FFGXH5TE","poiLocation":"118.955329,42.262580","poiLng":"118.955329","poiLat":"42.262580","poiName":"梅园小区(赤峰市生产力促进中心南)","poiType":"商务住宅;住宅区;住宅小区","poiAddress":"昭乌达路西200米","poiBounds":"null","poiPcode":"150000","poiPname":"内蒙古自治区","poiCitycode":"0476","poiCityname":"赤峰市","poiAdcode":"150402","poiAdname":"红山区","poiRegion":"内蒙古自治区赤峰市红山区"},{"poiId":"B01DC16FX6","poiLocation":"118.937357,42.256146","poiLng":"118.937357","poiLat":"42.256146","poiName":"金和美地","poiType":"商务住宅;住宅区;住宅小区","poiAddress":"祥和万嘉附近","poiBounds":"null","poiPcode":"150000","poiPname":"内蒙古自治区","poiCitycode":"0476","poiCityname":"赤峰市","poiAdcode":"150402","poiAdname":"红山区","poiRegion":"内蒙古自治区赤峰市红山区"},{"poiId":"B01DC15MAX","poiLocation":"118.943112,42.261491","poiLng":"118.943112","poiLat":"42.261491","poiName":"金狮住宅","poiType":"商务住宅;住宅区;住宅小区","poiAddress":"钢铁西街","poiBounds":"null","poiPcode":"150000","poiPname":"内蒙古自治区","poiCitycode":"0476","poiCityname":"赤峰市","poiAdcode":"150402","poiAdname":"红山区","poiRegion":"内蒙古自治区赤峰市红山区"},{"poiId":"B0FFF4FKMG","poiLocation":"118.980624,42.268346","poiLng":"118.980624","poiLat":"42.268346","poiName":"红山王府花园","poiType":"商务住宅;住宅区;住宅小区","poiAddress":"钢铁街东段东方医院南200米","poiBounds":"null","poiPcode":"150000","poiPname":"内蒙古自治区","poiCitycode":"0476","poiCityname":"赤峰市","poiAdcode":"150402","poiAdname":"红山区","poiRegion":"内蒙古自治区赤峰市红山区"},{"poiId":"B0FFI76DOP","poiLocation":"118.915521,42.233440","poiLng":"118.915521","poiLat":"42.233440","poiName":"首地红山郡B区5号苑","poiType":"商务住宅;住宅区;住宅小区","poiAddress":"铁南大街附近","poiBounds":"null","poiPcode":"150000","poiPname":"内蒙古自治区","poiCitycode":"0476","poiCityname":"赤峰市","poiAdcode":"150402","poiAdname":"红山区","poiRegion":"内蒙古自治区赤峰市红山区"},{"poiId":"B0FFI76DE1","poiLocation":"118.913417,42.233925","poiLng":"118.913417","poiLat":"42.233925","poiName":"首地红山郡B区4号苑","poiType":"商务住宅;住宅区;住宅小区","poiAddress":"","poiBounds":"null","poiPcode":"150000","poiPname":"内蒙古自治区","poiCitycode":"0476","poiCityname":"赤峰市","poiAdcode":"150402","poiAdname":"红山区","poiRegion":"内蒙古自治区赤峰市红山区"},{"poiId":"B0FFI76DCY","poiLocation":"118.916372,42.234621","poiLng":"118.916372","poiLat":"42.234621","poiName":"首地红山郡B区3号苑","poiType":"商务住宅;住宅区;住宅小区","poiAddress":"铁南大街附近","poiBounds":"null","poiPcode":"150000","poiPname":"内蒙古自治区","poiCitycode":"0476","poiCityname":"赤峰市","poiAdcode":"150402","poiAdname":"红山区","poiRegion":"内蒙古自治区赤峰市红山区"},{"poiId":"B0FFGXH9SO","poiLocation":"118.975093,42.270729","poiLng":"118.975093","poiLat":"42.270729","poiName":"热电B区","poiType":"商务住宅;住宅区;住宅小区","poiAddress":"长青街四粮店附近","poiBounds":"null","poiPcode":"150000","poiPname":"内蒙古自治区","poiCitycode":"0476","poiCityname":"赤峰市","poiAdcode":"150402","poiAdname":"红山区","poiRegion":"内蒙古自治区赤峰市红山区"},{"poiId":"B0FFGXH91B","poiLocation":"118.972551,42.269977","poiLng":"118.972551","poiLat":"42.269977","poiName":"热电C区","poiType":"商务住宅;住宅区;住宅小区","poiAddress":"火化路卤鸭大王附近十六小对面","poiBounds":"null","poiPcode":"150000","poiPname":"内蒙古自治区","poiCitycode":"0476","poiCityname":"赤峰市","poiAdcode":"150402","poiAdname":"红山区","poiRegion":"内蒙古自治区赤峰市红山区"},{"poiId":"B01DC15M5J","poiLocation":"118.972591,42.271167","poiLng":"118.972591","poiLat":"42.271167","poiName":"热电D区","poiType":"商务住宅;住宅区;住宅小区","poiAddress":"火花路卤鸭大王附近十六小东50米","poiBounds":"null","poiPcode":"150000","poiPname":"内蒙古自治区","poiCitycode":"0476","poiCityname":"赤峰市","poiAdcode":"150402","poiAdname":"红山区","poiRegion":"内蒙古自治区赤峰市红山区"},{"poiId":"B01DC15LCW","poiLocation":"118.961345,42.262214","poiLng":"118.961345","poiLat":"42.262214","poiName":"一建二院","poiType":"商务住宅;住宅区;住宅小区","poiAddress":"解放街26号","poiBounds":"null","poiPcode":"150000","poiPname":"内蒙古自治区","poiCitycode":"0476","poiCityname":"赤峰市","poiAdcode":"150402","poiAdname":"红山区","poiRegion":"内蒙古自治区赤峰市红山区"},{"poiId":"B0FFG0DG3C","poiLocation":"119.07554,42.308188","poiLng":"119.07554","poiLat":"42.308188","poiName":"英金河畔","poiType":"商务住宅;住宅区;住宅小区","poiAddress":"111国道北150米","poiBounds":"null","poiPcode":"150000","poiPname":"内蒙古自治区","poiCitycode":"0476","poiCityname":"赤峰市","poiAdcode":"150402","poiAdname":"红山区","poiRegion":"内蒙古自治区赤峰市红山区"},{"poiId":"B0FFF0LMLU","poiLocation":"118.957352,42.275154","poiLng":"118.957352","poiLat":"42.275154","poiName":"文化小区02","poiType":"商务住宅;住宅区;住宅小区","poiAddress":"五道路与新华路步行街交叉口东南100米","poiBounds":"null","poiPcode":"150000","poiPname":"内蒙古自治区","poiCitycode":"0476","poiCityname":"赤峰市","poiAdcode":"150402","poiAdname":"红山区","poiRegion":"内蒙古自治区赤峰市红山区"},{"poiId":"B01DC15X2R","poiLocation":"118.973522,42.280453","poiLng":"118.973522","poiLat":"42.280453","poiName":"永巨小区一组团","poiType":"商务住宅;住宅区;住宅小区","poiAddress":"三道街7号","poiBounds":"null","poiPcode":"150000","poiPname":"内蒙古自治区","poiCitycode":"0476","poiCityname":"赤峰市","poiAdcode":"150402","poiAdname":"红山区","poiRegion":"内蒙古自治区赤峰市红山区"},{"poiId":"B01DC15LCB","poiLocation":"118.980655,42.284502","poiLng":"118.980655","poiLat":"42.284502","poiName":"天元东城","poiType":"商务住宅;住宅区;住宅小区","poiAddress":"三道东街与八小胡同交叉口西北150米","poiBounds":"null","poiPcode":"150000","poiPname":"内蒙古自治区","poiCitycode":"0476","poiCityname":"赤峰市","poiAdcode":"150402","poiAdname":"红山区","poiRegion":"内蒙古自治区赤峰市红山区"},{"poiId":"B01DC0I67W","poiLocation":"118.970424,42.277242","poiLng":"118.970424","poiLat":"42.277242","poiName":"明珠花园(哈达西街)","poiType":"商务住宅;住宅区;住宅小区","poiAddress":"哈达西街36号","poiBounds":"null","poiPcode":"150000","poiPname":"内蒙古自治区","poiCitycode":"0476","poiCityname":"赤峰市","poiAdcode":"150402","poiAdname":"红山区","poiRegion":"内蒙古自治区赤峰市红山区"},{"poiId":"B0FFH1MX3D","poiLocation":"118.945775,42.269082","poiLng":"118.945775","poiLat":"42.269082","poiName":"玫瑰园小区","poiType":"商务住宅;住宅区;住宅小区","poiAddress":"哈达街六中正对面","poiBounds":"null","poiPcode":"150000","poiPname":"内蒙古自治区","poiCitycode":"0476","poiCityname":"赤峰市","poiAdcode":"150402","poiAdname":"红山区","poiRegion":"内蒙古自治区赤峰市红山区"},{"poiId":"B0FFI6UTXI","poiLocation":"118.947506,42.265320","poiLng":"118.947506","poiLat":"42.265320","poiName":"粮食局家属楼","poiType":"商务住宅;住宅区;住宅小区","poiAddress":"园林路西200米","poiBounds":"null","poiPcode":"150000","poiPname":"内蒙古自治区","poiCitycode":"0476","poiCityname":"赤峰市","poiAdcode":"150402","poiAdname":"红山区","poiRegion":"内蒙古自治区赤峰市红山区"},{"poiId":"B0FFH3G9UL","poiLocation":"118.948982,42.303318","poiLng":"118.948982","poiLat":"42.303318","poiName":"健康家园","poiType":"商务住宅;住宅区;住宅小区","poiAddress":"桥北新区赤峰红山区新政府北300米","poiBounds":"null","poiPcode":"150000","poiPname":"内蒙古自治区","poiCitycode":"0476","poiCityname":"赤峰市","poiAdcode":"150402","poiAdname":"红山区","poiRegion":"内蒙古自治区赤峰市红山区"},{"poiId":"B0FFGEWLK2","poiLocation":"118.953181,42.292371","poiLng":"118.953181","poiLat":"42.292371","poiName":"唯美品格","poiType":"商务住宅;住宅区;住宅小区","poiAddress":"锡泊湖大街","poiBounds":"null","poiPcode":"150000","poiPname":"内蒙古自治区","poiCitycode":"0476","poiCityname":"赤峰市","poiAdcode":"150402","poiAdname":"红山区","poiRegion":"内蒙古自治区赤峰市红山区"},{"poiId":"B01DC1593S","poiLocation":"118.946848,42.274165","poiLng":"118.946848","poiLat":"42.274165","poiName":"滨河小区(三道西街)","poiType":"商务住宅;住宅区;住宅小区","poiAddress":"三道街136号","poiBounds":"null","poiPcode":"150000","poiPname":"内蒙古自治区","poiCitycode":"0476","poiCityname":"赤峰市","poiAdcode":"150402","poiAdname":"红山区","poiRegion":"内蒙古自治区赤峰市红山区"},{"poiId":"B0FFIRBE0F","poiLocation":"118.972363,42.263216","poiLng":"118.972363","poiLat":"42.263216","poiName":"东黎俊景小区","poiType":"商务住宅;住宅区;住宅小区","poiAddress":"火花路西150米","poiBounds":"null","poiPcode":"150000","poiPname":"内蒙古自治区","poiCitycode":"0476","poiCityname":"赤峰市","poiAdcode":"150402","poiAdname":"红山区","poiRegion":"内蒙古自治区赤峰市红山区"},{"poiId":"B0FFI7RSTZ","poiLocation":"118.962225,42.264010","poiLng":"118.962225","poiLat":"42.264010","poiName":"赤峰万商大院","poiType":"商务住宅;住宅区;住宅小区|购物服务;综合市场;综合市场","poiAddress":"新华路西150米","poiBounds":"null","poiPcode":"150000","poiPname":"内蒙古自治区","poiCitycode":"0476","poiCityname":"赤峰市","poiAdcode":"150402","poiAdname":"红山区","poiRegion":"内蒙古自治区赤峰市红山区"},{"poiId":"B0FFG8D15X","poiLocation":"119.010893,42.287207","poiLng":"119.010893","poiLat":"42.287207","poiName":"四季雅苑","poiType":"商务住宅;住宅区;住宅小区","poiAddress":"红烨大街","poiBounds":"null","poiPcode":"150000","poiPname":"内蒙古自治区","poiCitycode":"0476","poiCityname":"赤峰市","poiAdcode":"150402","poiAdname":"红山区","poiRegion":"内蒙古自治区赤峰市红山区"},{"poiId":"B0FFG9GDFE","poiLocation":"118.960827,42.290249","poiLng":"118.960827","poiLat":"42.290249","poiName":"龙湖湾西区","poiType":"商务住宅;住宅区;住宅小区","poiAddress":"桥北街道","poiBounds":"null","poiPcode":"150000","poiPname":"内蒙古自治区","poiCitycode":"0476","poiCityname":"赤峰市","poiAdcode":"150402","poiAdname":"红山区","poiRegion":"内蒙古自治区赤峰市红山区"},{"poiId":"B01DC15L0V","poiLocation":"118.973991,42.270112","poiLng":"118.973991","poiLat":"42.270112","poiName":"运管处家属院","poiType":"商务住宅;住宅区;住宅小区","poiAddress":"内钢铁街与清河路交叉口西250米(环宇小区内)","poiBounds":"null","poiPcode":"150000","poiPname":"内蒙古自治区","poiCitycode":"0476","poiCityname":"赤峰市","poiAdcode":"150402","poiAdname":"红山区","poiRegion":"内蒙古自治区赤峰市红山区"},{"poiId":"B0FFGXH7SX","poiLocation":"118.956787,42.266956","poiLng":"118.956787","poiLat":"42.266956","poiName":"都市花园小区B区","poiType":"商务住宅;住宅区;住宅小区","poiAddress":"昭乌达路42号附近","poiBounds":"null","poiPcode":"150000","poiPname":"内蒙古自治区","poiCitycode":"0476","poiCityname":"赤峰市","poiAdcode":"150402","poiAdname":"红山区","poiRegion":"内蒙古自治区赤峰市红山区"},{"poiId":"B0FFH6WHXY","poiLocation":"118.974424,42.264498","poiLng":"118.974424","poiLat":"42.264498","poiName":"鑫秋小区","poiType":"商务住宅;住宅区;住宅小区","poiAddress":"火花路","poiBounds":"null","poiPcode":"150000","poiPname":"内蒙古自治区","poiCitycode":"0476","poiCityname":"赤峰市","poiAdcode":"150402","poiAdname":"红山区","poiRegion":"内蒙古自治区赤峰市红山区"},{"poiId":"B0FFGXH6VV","poiLocation":"118.951873,42.262870","poiLng":"118.951873","poiLat":"42.262870","poiName":"红城松园","poiType":"商务住宅;住宅区;住宅小区","poiAddress":"园林路与教育局胡同交叉口东100米","poiBounds":"null","poiPcode":"150000","poiPname":"内蒙古自治区","poiCitycode":"0476","poiCityname":"赤峰市","poiAdcode":"150402","poiAdname":"红山区","poiRegion":"内蒙古自治区赤峰市红山区"},{"poiId":"B01DC0JKRP","poiLocation":"118.957967,42.272046","poiLng":"118.957967","poiLat":"42.272046","poiName":"赤峰二毛家属楼","poiType":"商务住宅;住宅区;住宅小区","poiAddress":"哈达街三段","poiBounds":"null","poiPcode":"150000","poiPname":"内蒙古自治区","poiCitycode":"0476","poiCityname":"赤峰市","poiAdcode":"150402","poiAdname":"红山区","poiRegion":"内蒙古自治区赤峰市红山区"},{"poiId":"B01DC15M6C","poiLocation":"118.96513,42.26139","poiLng":"118.96513","poiLat":"42.26139","poiName":"鑫盛家园(解放街)","poiType":"商务住宅;住宅区;住宅小区","poiAddress":"解放街东段金格里拉对面","poiBounds":"null","poiPcode":"150000","poiPname":"内蒙古自治区","poiCitycode":"0476","poiCityname":"赤峰市","poiAdcode":"150402","poiAdname":"红山区","poiRegion":"内蒙古自治区赤峰市红山区"},{"poiId":"B01DC00H06","poiLocation":"118.966836,42.277858","poiLng":"118.966836","poiLat":"42.277858","poiName":"怡康家园(五道街)","poiType":"商务住宅;住宅区;住宅小区","poiAddress":"五道街28","poiBounds":"null","poiPcode":"150000","poiPname":"内蒙古自治区","poiCitycode":"0476","poiCityname":"赤峰市","poiAdcode":"150402","poiAdname":"红山区","poiRegion":"内蒙古自治区赤峰市红山区"},{"poiId":"B01DC0JKTF","poiLocation":"118.943291,42.255605","poiLng":"118.943291","poiLat":"42.255605","poiName":"宁澜花园","poiType":"商务住宅;住宅区;住宅小区","poiAddress":"迎宾路附近","poiBounds":"null","poiPcode":"150000","poiPname":"内蒙古自治区","poiCitycode":"0476","poiCityname":"赤峰市","poiAdcode":"150402","poiAdname":"红山区","poiRegion":"内蒙古自治区赤峰市红山区"},{"poiId":"B01DC15GG1","poiLocation":"118.958939,42.295899","poiLng":"118.958939","poiLat":"42.295899","poiName":"钓鱼台A区","poiType":"商务住宅;住宅区;住宅小区","poiAddress":"英金河大街","poiBounds":"null","poiPcode":"150000","poiPname":"内蒙古自治区","poiCitycode":"0476","poiCityname":"赤峰市","poiAdcode":"150402","poiAdname":"红山区","poiRegion":"内蒙古自治区赤峰市红山区"},{"poiId":"B01DC0J16T","poiLocation":"118.959021,42.261478","poiLng":"118.959021","poiLat":"42.261478","poiName":"军安家园","poiType":"商务住宅;住宅区;住宅小区","poiAddress":"昭乌达路与解放街交叉口东北150米","poiBounds":"null","poiPcode":"150000","poiPname":"内蒙古自治区","poiCitycode":"0476","poiCityname":"赤峰市","poiAdcode":"150402","poiAdname":"红山区","poiRegion":"内蒙古自治区赤峰市红山区"},{"poiId":"B01DC15LDW","poiLocation":"118.967473,42.278704","poiLng":"118.967473","poiLat":"42.278704","poiName":"金和家园","poiType":"商务住宅;住宅区;住宅小区","poiAddress":"四道街与铁营胡同交叉口西南150米","poiBounds":"null","poiPcode":"150000","poiPname":"内蒙古自治区","poiCitycode":"0476","poiCityname":"赤峰市","poiAdcode":"150402","poiAdname":"红山区","poiRegion":"内蒙古自治区赤峰市红山区"},{"poiId":"B01DC1593N","poiLocation":"118.941772,42.254737","poiLng":"118.941772","poiLat":"42.254737","poiName":"嘉欣家园","poiType":"商务住宅;住宅区;住宅小区","poiAddress":"站前街道大修厂家属院","poiBounds":"null","poiPcode":"150000","poiPname":"内蒙古自治区","poiCitycode":"0476","poiCityname":"赤峰市","poiAdcode":"150402","poiAdname":"红山区","poiRegion":"内蒙古自治区赤峰市红山区"},{"poiId":"B0FFFH0FGK","poiLocation":"118.948675,42.296807","poiLng":"118.948675","poiLat":"42.296807","poiName":"金宇国际A区","poiType":"商务住宅;住宅区;住宅小区","poiAddress":"赤锡路","poiBounds":"null","poiPcode":"150000","poiPname":"内蒙古自治区","poiCitycode":"0476","poiCityname":"赤峰市","poiAdcode":"150402","poiAdname":"红山区","poiRegion":"内蒙古自治区赤峰市红山区"},{"poiId":"B01DC1593Z","poiLocation":"118.975402,42.292822","poiLng":"118.975402","poiLat":"42.292822","poiName":"锅炉厂小区","poiType":"商务住宅;住宅区;住宅小区","poiAddress":"红山路","poiBounds":"null","poiPcode":"150000","poiPname":"内蒙古自治区","poiCitycode":"0476","poiCityname":"赤峰市","poiAdcode":"150402","poiAdname":"红山区","poiRegion":"内蒙古自治区赤峰市红山区"},{"poiId":"B01DC15L6J","poiLocation":"118.969603,42.279895","poiLng":"118.969603","poiLat":"42.279895","poiName":"天合阳光城A区","poiType":"商务住宅;住宅区;住宅小区","poiAddress":"三道西街与铁营胡同交叉口东南20米","poiBounds":"null","poiPcode":"150000","poiPname":"内蒙古自治区","poiCitycode":"0476","poiCityname":"赤峰市","poiAdcode":"150402","poiAdname":"红山区","poiRegion":"内蒙古自治区赤峰市红山区"},{"poiId":"B01DC15WT7","poiLocation":"118.951178,42.270377","poiLng":"118.951178","poiLat":"42.270377","poiName":"银马小区","poiType":"商务住宅;住宅区;住宅小区","poiAddress":"哈达西街南100米","poiBounds":"null","poiPcode":"150000","poiPname":"内蒙古自治区","poiCitycode":"0476","poiCityname":"赤峰市","poiAdcode":"150402","poiAdname":"红山区","poiRegion":"内蒙古自治区赤峰市红山区"},{"poiId":"B01DC0JL7D","poiLocation":"118.968451,42.276845","poiLng":"118.968451","poiLat":"42.276845","poiName":"腊阳小区","poiType":"商务住宅;住宅区;住宅小区","poiAddress":"火花路","poiBounds":"null","poiPcode":"150000","poiPname":"内蒙古自治区","poiCitycode":"0476","poiCityname":"赤峰市","poiAdcode":"150402","poiAdname":"红山区","poiRegion":"内蒙古自治区赤峰市红山区"},{"poiId":"B01DC0JN2H","poiLocation":"118.989106,42.268561","poiLng":"118.989106","poiLat":"42.268561","poiName":"机务小区","poiType":"商务住宅;住宅区;住宅小区","poiAddress":"机务段第四实验小学旁","poiBounds":"null","poiPcode":"150000","poiPname":"内蒙古自治区","poiCitycode":"0476","poiCityname":"赤峰市","poiAdcode":"150402","poiAdname":"红山区","poiRegion":"内蒙古自治区赤峰市红山区"},{"poiId":"B01DC0JKIB","poiLocation":"118.944916,42.257213","poiLng":"118.944916","poiLat":"42.257213","poiName":"水利小区(宁澜路)","poiType":"商务住宅;住宅区;住宅小区|商务住宅;楼宇;商住两用楼宇","poiAddress":"宁澜路15","poiBounds":"null","poiPcode":"150000","poiPname":"内蒙古自治区","poiCitycode":"0476","poiCityname":"赤峰市","poiAdcode":"150402","poiAdname":"红山区","poiRegion":"内蒙古自治区赤峰市红山区"},{"poiId":"B0FFF4CXL2","poiLocation":"118.961584,42.297593","poiLng":"118.961584","poiLat":"42.297593","poiName":"钓鱼台B区","poiType":"商务住宅;住宅区;住宅小区","poiAddress":"贡格尔大街附近","poiBounds":"null","poiPcode":"150000","poiPname":"内蒙古自治区","poiCitycode":"0476","poiCityname":"赤峰市","poiAdcode":"150402","poiAdname":"红山区","poiRegion":"内蒙古自治区赤峰市红山区"},{"poiId":"B01DC0J0P7","poiLocation":"118.992524,42.286479","poiLng":"118.992524","poiLat":"42.286479","poiName":"东城花园","poiType":"商务住宅;住宅区;住宅小区","poiAddress":"红旗路","poiBounds":"null","poiPcode":"150000","poiPname":"内蒙古自治区","poiCitycode":"0476","poiCityname":"赤峰市","poiAdcode":"150402","poiAdname":"红山区","poiRegion":"内蒙古自治区赤峰市红山区"},{"poiId":"B0FFFVC2B0","poiLocation":"118.943031,42.299017","poiLng":"118.943031","poiLat":"42.299017","poiName":"荷枫水岸2期","poiType":"商务住宅;住宅区;住宅小区","poiAddress":"桥北街道龙头山路","poiBounds":"null","poiPcode":"150000","poiPname":"内蒙古自治区","poiCitycode":"0476","poiCityname":"赤峰市","poiAdcode":"150402","poiAdname":"红山区","poiRegion":"内蒙古自治区赤峰市红山区"},{"poiId":"B0FFFH0H9O","poiLocation":"118.968419,42.295645","poiLng":"118.968419","poiLat":"42.295645","poiName":"阳光希望家园3期","poiType":"商务住宅;住宅区;住宅小区","poiAddress":"清河路东150米","poiBounds":"null","poiPcode":"150000","poiPname":"内蒙古自治区","poiCitycode":"0476","poiCityname":"赤峰市","poiAdcode":"150402","poiAdname":"红山区","poiRegion":"内蒙古自治区赤峰市红山区"},{"poiId":"B0FFG0DKGY","poiLocation":"118.960254,42.267558","poiLng":"118.960254","poiLat":"42.267558","poiName":"辽河小区(新华路)","poiType":"商务住宅;住宅区;住宅小区","poiAddress":"新华路83号","poiBounds":"null","poiPcode":"150000","poiPname":"内蒙古自治区","poiCitycode":"0476","poiCityname":"赤峰市","poiAdcode":"150402","poiAdname":"红山区","poiRegion":"内蒙古自治区赤峰市红山区"},{"poiId":"B0FFFWOZV1","poiLocation":"118.947196,42.265880","poiLng":"118.947196","poiLat":"42.265880","poiName":"国安小区","poiType":"商务住宅;住宅区;住宅小区","poiAddress":"长青街南200米","poiBounds":"null","poiPcode":"150000","poiPname":"内蒙古自治区","poiCitycode":"0476","poiCityname":"赤峰市","poiAdcode":"150402","poiAdname":"红山区","poiRegion":"内蒙古自治区赤峰市红山区"},{"poiId":"B01DC0JKN1","poiLocation":"118.962284,42.276118","poiLng":"118.962284","poiLat":"42.276118","poiName":"松州小区","poiType":"商务住宅;住宅区;住宅小区","poiAddress":"五道街与松州巷交叉口东南100米","poiBounds":"null","poiPcode":"150000","poiPname":"内蒙古自治区","poiCitycode":"0476","poiCityname":"赤峰市","poiAdcode":"150402","poiAdname":"红山区","poiRegion":"内蒙古自治区赤峰市红山区"},{"poiId":"B0FFFH0HCS","poiLocation":"118.953239,42.259731","poiLng":"118.953239","poiLat":"42.259731","poiName":"昭乌达丽都","poiType":"商务住宅;住宅区;住宅小区","poiAddress":"园林路与解放街交叉口东北150米","poiBounds":"null","poiPcode":"150000","poiPname":"内蒙古自治区","poiCitycode":"0476","poiCityname":"赤峰市","poiAdcode":"150402","poiAdname":"红山区","poiRegion":"内蒙古自治区赤峰市红山区"},{"poiId":"B0FFG4UWYK","poiLocation":"118.962193,42.272082","poiLng":"118.962193","poiLat":"42.272082","poiName":"花园小区(长青街)","poiType":"商务住宅;住宅区;住宅小区","poiAddress":"新华路东100米","poiBounds":"null","poiPcode":"150000","poiPname":"内蒙古自治区","poiCitycode":"0476","poiCityname":"赤峰市","poiAdcode":"150402","poiAdname":"红山区","poiRegion":"内蒙古自治区赤峰市红山区"},{"poiId":"B0FFFGZYUJ","poiLocation":"118.944243,42.301185","poiLng":"118.944243","poiLat":"42.301185","poiName":"碧水蓝庭","poiType":"商务住宅;住宅区;住宅小区","poiAddress":"赤锡路西200米","poiBounds":"null","poiPcode":"150000","poiPname":"内蒙古自治区","poiCitycode":"0476","poiCityname":"赤峰市","poiAdcode":"150402","poiAdname":"红山区","poiRegion":"内蒙古自治区赤峰市红山区"},{"poiId":"B0FFG4UVD3","poiLocation":"118.945649,42.271558","poiLng":"118.945649","poiLat":"42.271558","poiName":"松政小区","poiType":"商务住宅;住宅区;住宅小区","poiAddress":"哈达西街与园林路交叉口西北150米","poiBounds":"null","poiPcode":"150000","poiPname":"内蒙古自治区","poiCitycode":"0476","poiCityname":"赤峰市","poiAdcode":"150402","poiAdname":"红山区","poiRegion":"内蒙古自治区赤峰市红山区"},{"poiId":"B0FFFGZHO0","poiLocation":"119.000659,42.287027","poiLng":"119.000659","poiLat":"42.287027","poiName":"龙景小区","poiType":"商务住宅;住宅区;住宅小区","poiAddress":"三道东街40号","poiBounds":"null","poiPcode":"150000","poiPname":"内蒙古自治区","poiCitycode":"0476","poiCityname":"赤峰市","poiAdcode":"150402","poiAdname":"红山区","poiRegion":"内蒙古自治区赤峰市红山区"},{"poiId":"B0FFG4UWXS","poiLocation":"118.965841,42.266199","poiLng":"118.965841","poiLat":"42.266199","poiName":"润峰小区","poiType":"商务住宅;住宅区;住宅小区","poiAddress":"钢铁街69","poiBounds":"null","poiPcode":"150000","poiPname":"内蒙古自治区","poiCitycode":"0476","poiCityname":"赤峰市","poiAdcode":"150402","poiAdname":"红山区","poiRegion":"内蒙古自治区赤峰市红山区"},{"poiId":"B0FFG4UVDU","poiLocation":"118.945093,42.264698","poiLng":"118.945093","poiLat":"42.264698","poiName":"西城小区(海关胡同)","poiType":"商务住宅;住宅区;住宅小区","poiAddress":"海关胡同","poiBounds":"null","poiPcode":"150000","poiPname":"内蒙古自治区","poiCitycode":"0476","poiCityname":"赤峰市","poiAdcode":"150402","poiAdname":"红山区","poiRegion":"内蒙古自治区赤峰市红山区"},{"poiId":"B0FFFWYDD7","poiLocation":"118.963981,42.284656","poiLng":"118.963981","poiLat":"42.284656","poiName":"滨河小区(北环路)","poiType":"商务住宅;住宅区;住宅小区","poiAddress":"头道街滨河小区十号厅","poiBounds":"null","poiPcode":"150000","poiPname":"内蒙古自治区","poiCitycode":"0476","poiCityname":"赤峰市","poiAdcode":"150402","poiAdname":"红山区","poiRegion":"内蒙古自治区赤峰市红山区"},{"poiId":"B0FFFST8W5","poiLocation":"118.967806,42.280016","poiLng":"118.967806","poiLat":"42.280016","poiName":"红山区六小综合楼","poiType":"商务住宅;住宅区;住宅小区","poiAddress":"三道街29号","poiBounds":"null","poiPcode":"150000","poiPname":"内蒙古自治区","poiCitycode":"0476","poiCityname":"赤峰市","poiAdcode":"150402","poiAdname":"红山区","poiRegion":"内蒙古自治区赤峰市红山区"},{"poiId":"B0FFG503ZK","poiLocation":"118.967885,42.266876","poiLng":"118.967885","poiLat":"42.266876","poiName":"公安小区","poiType":"商务住宅;住宅区;住宅小区","poiAddress":"钢铁街公安分局附近","poiBounds":"null","poiPcode":"150000","poiPname":"内蒙古自治区","poiCitycode":"0476","poiCityname":"赤峰市","poiAdcode":"150402","poiAdname":"红山区","poiRegion":"内蒙古自治区赤峰市红山区"},{"poiId":"B0FFFP70KF","poiLocation":"118.96991,42.278661","poiLng":"118.96991","poiLat":"42.278661","poiName":"天合阳光城B区","poiType":"商务住宅;住宅区;住宅小区","poiAddress":"五道街与太平街胡同交叉口西北150米","poiBounds":"null","poiPcode":"150000","poiPname":"内蒙古自治区","poiCitycode":"0476","poiCityname":"赤峰市","poiAdcode":"150402","poiAdname":"红山区","poiRegion":"内蒙古自治区赤峰市红山区"},{"poiId":"B0FFFZNGV4","poiLocation":"118.950853,42.257883","poiLng":"118.950853","poiLat":"42.257883","poiName":"铁小小区","poiType":"商务住宅;住宅区;住宅小区","poiAddress":"解放街57号","poiBounds":"null","poiPcode":"150000","poiPname":"内蒙古自治区","poiCitycode":"0476","poiCityname":"赤峰市","poiAdcode":"150402","poiAdname":"红山区","poiRegion":"内蒙古自治区赤峰市红山区"},{"poiId":"B0FFG73A1I","poiLocation":"118.971763,42.273571","poiLng":"118.971763","poiLat":"42.273571","poiName":"长青小区","poiType":"商务住宅;住宅区;住宅小区","poiAddress":"四中胡同与长青街交叉口西北150米","poiBounds":"null","poiPcode":"150000","poiPname":"内蒙古自治区","poiCitycode":"0476","poiCityname":"赤峰市","poiAdcode":"150402","poiAdname":"红山区","poiRegion":"内蒙古自治区赤峰市红山区"},{"poiId":"B0FFG6LE1R","poiLocation":"118.964437,42.258078","poiLng":"118.964437","poiLat":"42.258078","poiName":"财富家园","poiType":"商务住宅;住宅区;住宅小区","poiAddress":"新华路与站前街交叉口南100米","poiBounds":"null","poiPcode":"150000","poiPname":"内蒙古自治区","poiCitycode":"0476","poiCityname":"赤峰市","poiAdcode":"150402","poiAdname":"红山区","poiRegion":"内蒙古自治区赤峰市红山区"},{"poiId":"B0FFG504BE","poiLocation":"118.9563,42.25913","poiLng":"118.9563","poiLat":"42.25913","poiName":"宏兴小区(解放街)","poiType":"商务住宅;住宅区;住宅小区","poiAddress":"站前街北150米","poiBounds":"null","poiPcode":"150000","poiPname":"内蒙古自治区","poiCitycode":"0476","poiCityname":"赤峰市","poiAdcode":"150402","poiAdname":"红山区","poiRegion":"内蒙古自治区赤峰市红山区"},{"poiId":"B0FFFYFJ27","poiLocation":"118.984480,42.268898","poiLng":"118.984480","poiLat":"42.268898","poiName":"多福嘉园","poiType":"商务住宅;住宅区;住宅小区","poiAddress":"站前街附近","poiBounds":"null","poiPcode":"150000","poiPname":"内蒙古自治区","poiCitycode":"0476","poiCityname":"赤峰市","poiAdcode":"150402","poiAdname":"红山区","poiRegion":"内蒙古自治区赤峰市红山区"},{"poiId":"B0FFFZS76K","poiLocation":"118.936616,42.253554","poiLng":"118.936616","poiLat":"42.253554","poiName":"时代天骄","poiType":"商务住宅;住宅区;住宅小区","poiAddress":"西肉联路附近","poiBounds":"null","poiPcode":"150000","poiPname":"内蒙古自治区","poiCitycode":"0476","poiCityname":"赤峰市","poiAdcode":"150402","poiAdname":"红山区","poiRegion":"内蒙古自治区赤峰市红山区"},{"poiId":"B0FFG6L9B1","poiLocation":"118.957211,42.256567","poiLng":"118.957211","poiLat":"42.256567","poiName":"赤峰清雅住宅小区","poiType":"商务住宅;住宅区;住宅小区","poiAddress":"园林路与站前街交叉口东150米","poiBounds":"null","poiPcode":"150000","poiPname":"内蒙古自治区","poiCitycode":"0476","poiCityname":"赤峰市","poiAdcode":"150402","poiAdname":"红山区","poiRegion":"内蒙古自治区赤峰市红山区"},{"poiId":"B0FFG7KXTX","poiLocation":"118.943001,42.263138","poiLng":"118.943001","poiLat":"42.263138","poiName":"大众小区","poiType":"商务住宅;住宅区;住宅小区","poiAddress":"钢铁街","poiBounds":"null","poiPcode":"150000","poiPname":"内蒙古自治区","poiCitycode":"0476","poiCityname":"赤峰市","poiAdcode":"150402","poiAdname":"红山区","poiRegion":"内蒙古自治区赤峰市红山区"},{"poiId":"B0FFH0K8M0","poiLocation":"119.000178,42.287112","poiLng":"119.000178","poiLat":"42.287112","poiName":"红山龙景","poiType":"商务住宅;住宅区;住宅小区","poiAddress":"三道东街42-8号附近","poiBounds":"null","poiPcode":"150000","poiPname":"内蒙古自治区","poiCitycode":"0476","poiCityname":"赤峰市","poiAdcode":"150402","poiAdname":"红山区","poiRegion":"内蒙古自治区赤峰市红山区"},{"poiId":"B01DC16NBK","poiLocation":"118.953941,42.259681","poiLng":"118.953941","poiLat":"42.259681","poiName":"昭乌达竹园小区","poiType":"商务住宅;住宅区;住宅小区","poiAddress":"园林路与解放街交叉口东北150米","poiBounds":"null","poiPcode":"150000","poiPname":"内蒙古自治区","poiCitycode":"0476","poiCityname":"赤峰市","poiAdcode":"150402","poiAdname":"红山区","poiRegion":"内蒙古自治区赤峰市红山区"},{"poiId":"B0FFH1AQNG","poiLocation":"118.951442,42.275244","poiLng":"118.951442","poiLat":"42.275244","poiName":"建鑫小区","poiType":"商务住宅;住宅区;住宅小区","poiAddress":"三道西街与昭乌达路交叉口西100米","poiBounds":"null","poiPcode":"150000","poiPname":"内蒙古自治区","poiCitycode":"0476","poiCityname":"赤峰市","poiAdcode":"150402","poiAdname":"红山区","poiRegion":"内蒙古自治区赤峰市红山区"},{"poiId":"B0FFG7XRSP","poiLocation":"118.956074,42.280853","poiLng":"118.956074","poiLat":"42.280853","poiName":"长虹小区","poiType":"商务住宅;住宅区;住宅小区","poiAddress":"一道街与新华路交叉口西150米","poiBounds":"null","poiPcode":"150000","poiPname":"内蒙古自治区","poiCitycode":"0476","poiCityname":"赤峰市","poiAdcode":"150402","poiAdname":"红山区","poiRegion":"内蒙古自治区赤峰市红山区"},{"poiId":"B0FFH1L5R0","poiLocation":"118.957009,42.281375","poiLng":"118.957009","poiLat":"42.281375","poiName":"顺风小区","poiType":"商务住宅;住宅区;住宅小区","poiAddress":"一道街与新华路交叉口西北100米","poiBounds":"null","poiPcode":"150000","poiPname":"内蒙古自治区","poiCitycode":"0476","poiCityname":"赤峰市","poiAdcode":"150402","poiAdname":"红山区","poiRegion":"内蒙古自治区赤峰市红山区"},{"poiId":"B0FFH196LN","poiLocation":"118.947840,42.271100","poiLng":"118.947840","poiLat":"42.271100","poiName":"建兴小区","poiType":"商务住宅;住宅区;住宅小区","poiAddress":"哈达西街与园林路交叉口东北100米","poiBounds":"null","poiPcode":"150000","poiPname":"内蒙古自治区","poiCitycode":"0476","poiCityname":"赤峰市","poiAdcode":"150402","poiAdname":"红山区","poiRegion":"内蒙古自治区赤峰市红山区"},{"poiId":"B0FFGTCV4H","poiLocation":"118.945255,42.272106","poiLng":"118.945255","poiLat":"42.272106","poiName":"新天地小区","poiType":"商务住宅;住宅区;住宅小区","poiAddress":"三东街西街桥西大桥附近黄金大厦北200米","poiBounds":"null","poiPcode":"150000","poiPname":"内蒙古自治区","poiCitycode":"0476","poiCityname":"赤峰市","poiAdcode":"150402","poiAdname":"红山区","poiRegion":"内蒙古自治区赤峰市红山区"},{"poiId":"B0FFH1IKDW","poiLocation":"118.964855,42.284851","poiLng":"118.964855","poiLat":"42.284851","poiName":"九中小区","poiType":"商务住宅;住宅区;住宅小区","poiAddress":"五小六小跟前","poiBounds":"null","poiPcode":"150000","poiPname":"内蒙古自治区","poiCitycode":"0476","poiCityname":"赤峰市","poiAdcode":"150402","poiAdname":"红山区","poiRegion":"内蒙古自治区赤峰市红山区"},{"poiId":"B0FFGX9PJK","poiLocation":"118.962339,42.279395","poiLng":"118.962339","poiLat":"42.279395","poiName":"兴隆小区南区","poiType":"商务住宅;住宅区;住宅小区","poiAddress":"三道西街与电报胡同交叉口东北150米","poiBounds":"null","poiPcode":"150000","poiPname":"内蒙古自治区","poiCitycode":"0476","poiCityname":"赤峰市","poiAdcode":"150402","poiAdname":"红山区","poiRegion":"内蒙古自治区赤峰市红山区"},{"poiId":"B0FFH1MRVI","poiLocation":"118.967436,42.277398","poiLng":"118.967436","poiLat":"42.277398","poiName":"铁匠营社区","poiType":"商务住宅;住宅区;住宅小区","poiAddress":"五道街26号附近","poiBounds":"null","poiPcode":"150000","poiPname":"内蒙古自治区","poiCitycode":"0476","poiCityname":"赤峰市","poiAdcode":"150402","poiAdname":"红山区","poiRegion":"内蒙古自治区赤峰市红山区"},{"poiId":"B0FFHBLICY","poiLocation":"118.976164,42.274366","poiLng":"118.976164","poiLat":"42.274366","poiName":"钻机厂家属楼","poiType":"商务住宅;住宅区;住宅小区","poiAddress":"清河路与长青街交汇处","poiBounds":"null","poiPcode":"150000","poiPname":"内蒙古自治区","poiCitycode":"0476","poiCityname":"赤峰市","poiAdcode":"150402","poiAdname":"红山区","poiRegion":"内蒙古自治区赤峰市红山区"},{"poiId":"B0FFH0EYV1","poiLocation":"118.974010,42.281590","poiLng":"118.974010","poiLat":"42.281590","poiName":"永巨北小区","poiType":"商务住宅;住宅区;住宅小区","poiAddress":"三道东街与三道街交叉口西50米","poiBounds":"null","poiPcode":"150000","poiPname":"内蒙古自治区","poiCitycode":"0476","poiCityname":"赤峰市","poiAdcode":"150402","poiAdname":"红山区","poiRegion":"内蒙古自治区赤峰市红山区"},{"poiId":"B0FFH1NV1X","poiLocation":"118.963354,42.261317","poiLng":"118.963354","poiLat":"42.261317","poiName":"一建小区","poiType":"商务住宅;住宅区;住宅小区","poiAddress":"新华路与解放街交叉口南100米","poiBounds":"null","poiPcode":"150000","poiPname":"内蒙古自治区","poiCitycode":"0476","poiCityname":"赤峰市","poiAdcode":"150402","poiAdname":"红山区","poiRegion":"内蒙古自治区赤峰市红山区"},{"poiId":"B0FFHCSM5O","poiLocation":"118.966026,42.265167","poiLng":"118.966026","poiLat":"42.265167","poiName":"地毯小区","poiType":"商务住宅;住宅区;住宅小区","poiAddress":"红星路","poiBounds":"null","poiPcode":"150000","poiPname":"内蒙古自治区","poiCitycode":"0476","poiCityname":"赤峰市","poiAdcode":"150402","poiAdname":"红山区","poiRegion":"内蒙古自治区赤峰市红山区"},{"poiId":"B0FFH1HP6O","poiLocation":"118.963490,42.260780","poiLng":"118.963490","poiLat":"42.260780","poiName":"建业小区","poiType":"商务住宅;住宅区;住宅小区","poiAddress":"新华路与解放街交叉口南150米","poiBounds":"null","poiPcode":"150000","poiPname":"内蒙古自治区","poiCitycode":"0476","poiCityname":"赤峰市","poiAdcode":"150402","poiAdname":"红山区","poiRegion":"内蒙古自治区赤峰市红山区"},{"poiId":"B0FFGXHPHV","poiLocation":"118.956191,42.281812","poiLng":"118.956191","poiLat":"42.281812","poiName":"金港国际","poiType":"商务住宅;住宅区;住宅小区","poiAddress":"一道街与新华路交叉口西北150米","poiBounds":"null","poiPcode":"150000","poiPname":"内蒙古自治区","poiCitycode":"0476","poiCityname":"赤峰市","poiAdcode":"150402","poiAdname":"红山区","poiRegion":"内蒙古自治区赤峰市红山区"},{"poiId":"B0FFH1NQ4Z","poiLocation":"118.978726,42.270402","poiLng":"118.978726","poiLat":"42.270402","poiName":"建材小区","poiType":"商务住宅;住宅区;住宅小区","poiAddress":"钢铁街东段东方医院","poiBounds":"null","poiPcode":"150000","poiPname":"内蒙古自治区","poiCitycode":"0476","poiCityname":"赤峰市","poiAdcode":"150402","poiAdname":"红山区","poiRegion":"内蒙古自治区赤峰市红山区"},{"poiId":"B0FFGLXOW8","poiLocation":"118.976524,42.285223","poiLng":"118.976524","poiLat":"42.285223","poiName":"红山世家(建设中)","poiType":"商务住宅;住宅区;住宅小区","poiAddress":"清河路附近","poiBounds":"null","poiPcode":"150000","poiPname":"内蒙古自治区","poiCitycode":"0476","poiCityname":"赤峰市","poiAdcode":"150402","poiAdname":"红山区","poiRegion":"内蒙古自治区赤峰市红山区"},{"poiId":"B0FFH1TUPV","poiLocation":"118.985868,42.282279","poiLng":"118.985868","poiLat":"42.282279","poiName":"红旗小区","poiType":"商务住宅;住宅区;住宅小区","poiAddress":"三道东街南150米","poiBounds":"null","poiPcode":"150000","poiPname":"内蒙古自治区","poiCitycode":"0476","poiCityname":"赤峰市","poiAdcode":"150402","poiAdname":"红山区","poiRegion":"内蒙古自治区赤峰市红山区"},{"poiId":"B0FFGFYB3X","poiLocation":"118.976299,42.288061","poiLng":"118.976299","poiLat":"42.288061","poiName":"富龙小区","poiType":"商务住宅;住宅区;住宅小区","poiAddress":"北环路附近","poiBounds":"null","poiPcode":"150000","poiPname":"内蒙古自治区","poiCitycode":"0476","poiCityname":"赤峰市","poiAdcode":"150402","poiAdname":"红山区","poiRegion":"内蒙古自治区赤峰市红山区"},{"poiId":"B0FFG6T416","poiLocation":"118.955711,42.290512","poiLng":"118.955711","poiLat":"42.290512","poiName":"龙腾国际","poiType":"商务住宅;住宅区;住宅小区","poiAddress":"锡泊河大街","poiBounds":"null","poiPcode":"150000","poiPname":"内蒙古自治区","poiCitycode":"0476","poiCityname":"赤峰市","poiAdcode":"150402","poiAdname":"红山区","poiRegion":"内蒙古自治区赤峰市红山区"},{"poiId":"B01DC0J8I9","poiLocation":"118.980355,42.269311","poiLng":"118.980355","poiLat":"42.269311","poiName":"物资小区(建材路)","poiType":"商务住宅;住宅区;住宅小区","poiAddress":"钢铁街建材路","poiBounds":"null","poiPcode":"150000","poiPname":"内蒙古自治区","poiCitycode":"0476","poiCityname":"赤峰市","poiAdcode":"150402","poiAdname":"红山区","poiRegion":"内蒙古自治区赤峰市红山区"},{"poiId":"B0FFG945TW","poiLocation":"118.97432,42.278918","poiLng":"118.97432","poiLat":"42.278918","poiName":"东南关六组团","poiType":"商务住宅;住宅区;住宅小区","poiAddress":"清河路83-1号附近","poiBounds":"null","poiPcode":"150000","poiPname":"内蒙古自治区","poiCitycode":"0476","poiCityname":"赤峰市","poiAdcode":"150402","poiAdname":"红山区","poiRegion":"内蒙古自治区赤峰市红山区"},{"poiId":"B0FFFZNGTO","poiLocation":"118.962513,42.258394","poiLng":"118.962513","poiLat":"42.258394","poiName":"盛世嘉园","poiType":"商务住宅;住宅区;住宅小区","poiAddress":"哈达西街171号","poiBounds":"null","poiPcode":"150000","poiPname":"内蒙古自治区","poiCitycode":"0476","poiCityname":"赤峰市","poiAdcode":"150402","poiAdname":"红山区","poiRegion":"内蒙古自治区赤峰市红山区"},{"poiId":"B0FFG78RLA","poiLocation":"118.999608,42.291673","poiLng":"118.999608","poiLat":"42.291673","poiName":"润泰家园","poiType":"商务住宅;住宅区;住宅小区","poiAddress":"红旗路1","poiBounds":"null","poiPcode":"150000","poiPname":"内蒙古自治区","poiCitycode":"0476","poiCityname":"赤峰市","poiAdcode":"150402","poiAdname":"红山区","poiRegion":"内蒙古自治区赤峰市红山区"},{"poiId":"B01DC0JLHG","poiLocation":"118.960233,42.259932","poiLng":"118.960233","poiLat":"42.259932","poiName":"沈铁花园","poiType":"商务住宅;住宅区;住宅小区","poiAddress":"昭乌达路与解放街诶交汇处","poiBounds":"null","poiPcode":"150000","poiPname":"内蒙古自治区","poiCitycode":"0476","poiCityname":"赤峰市","poiAdcode":"150402","poiAdname":"红山区","poiRegion":"内蒙古自治区赤峰市红山区"},{"poiId":"B01DC001VS","poiLocation":"118.951704,42.256632","poiLng":"118.951704","poiLat":"42.256632","poiName":"赤铁工务小区","poiType":"商务住宅;住宅区;住宅小区","poiAddress":"站前街142","poiBounds":"null","poiPcode":"150000","poiPname":"内蒙古自治区","poiCitycode":"0476","poiCityname":"赤峰市","poiAdcode":"150402","poiAdname":"红山区","poiRegion":"内蒙古自治区赤峰市红山区"},{"poiId":"B01DC00B5Z","poiLocation":"118.977563,42.283102","poiLng":"118.977563","poiLat":"42.283102","poiName":"世纪嘉园","poiType":"商务住宅;住宅区;住宅小区","poiAddress":"三道东街112号","poiBounds":"null","poiPcode":"150000","poiPname":"内蒙古自治区","poiCitycode":"0476","poiCityname":"赤峰市","poiAdcode":"150402","poiAdname":"红山区","poiRegion":"内蒙古自治区赤峰市红山区"},{"poiId":"B01DC0JB4H","poiLocation":"119.086013,42.30806","poiLng":"119.086013","poiLat":"42.30806","poiName":"红庙子镇聂胡地农民新村(赤元线)","poiType":"商务住宅;住宅区;住宅小区","poiAddress":"红庙子镇聂胡地","poiBounds":"null","poiPcode":"150000","poiPname":"内蒙古自治区","poiCitycode":"0476","poiCityname":"赤峰市","poiAdcode":"150402","poiAdname":"红山区","poiRegion":"内蒙古自治区赤峰市红山区"},{"poiId":"B0FFI2AEBE","poiLocation":"118.952967,42.263053","poiLng":"118.952967","poiLat":"42.263053","poiName":"莹盈超市松园小区","poiType":"商务住宅;住宅区;住宅小区","poiAddress":"钢铁街","poiBounds":"null","poiPcode":"150000","poiPname":"内蒙古自治区","poiCitycode":"0476","poiCityname":"赤峰市","poiAdcode":"150402","poiAdname":"红山区","poiRegion":"内蒙古自治区赤峰市红山区"},{"poiId":"B0FFI75KIN","poiLocation":"118.970556,42.281444","poiLng":"118.970556","poiLat":"42.281444","poiName":"市防疫站集资家属楼","poiType":"商务住宅;住宅区;住宅小区","poiAddress":"二道街13号附近","poiBounds":"null","poiPcode":"150000","poiPname":"内蒙古自治区","poiCitycode":"0476","poiCityname":"赤峰市","poiAdcode":"150402","poiAdname":"红山区","poiRegion":"内蒙古自治区赤峰市红山区"},{"poiId":"B01DC15X2M","poiLocation":"118.954646,42.255998","poiLng":"118.954646","poiLat":"42.255998","poiName":"沈铁清雅小区","poiType":"商务住宅;住宅区;住宅小区","poiAddress":"园林路与站前街交叉口东南100米","poiBounds":"null","poiPcode":"150000","poiPname":"内蒙古自治区","poiCitycode":"0476","poiCityname":"赤峰市","poiAdcode":"150402","poiAdname":"红山区","poiRegion":"内蒙古自治区赤峰市红山区"},{"poiId":"B01DC1593O","poiLocation":"118.940454,42.254822","poiLng":"118.940454","poiLat":"42.254822","poiName":"祥和万嘉","poiType":"商务住宅;住宅区;住宅小区","poiAddress":"解放西街南150米","poiBounds":"null","poiPcode":"150000","poiPname":"内蒙古自治区","poiCitycode":"0476","poiCityname":"赤峰市","poiAdcode":"150402","poiAdname":"红山区","poiRegion":"内蒙古自治区赤峰市红山区"},{"poiId":"B0FFI76QNW","poiLocation":"118.957340,42.290103","poiLng":"118.957340","poiLat":"42.290103","poiName":"龙腾·云公馆","poiType":"商务住宅;住宅区;住宅小区","poiAddress":"英金大街附近","poiBounds":"null","poiPcode":"150000","poiPname":"内蒙古自治区","poiCitycode":"0476","poiCityname":"赤峰市","poiAdcode":"150402","poiAdname":"红山区","poiRegion":"内蒙古自治区赤峰市红山区"},{"poiId":"B0FFFZPBWM","poiLocation":"118.959192,42.270974","poiLng":"118.959192","poiLat":"42.270974","poiName":"银行胡同小区","poiType":"商务住宅;住宅区;住宅小区","poiAddress":"银行胡同9号附近","poiBounds":"null","poiPcode":"150000","poiPname":"内蒙古自治区","poiCitycode":"0476","poiCityname":"赤峰市","poiAdcode":"150402","poiAdname":"红山区","poiRegion":"内蒙古自治区赤峰市红山区"},{"poiId":"B0FFFZPBVF","poiLocation":"118.945837,42.264559","poiLng":"118.945837","poiLat":"42.264559","poiName":"彩电小区","poiType":"商务住宅;住宅区;住宅小区","poiAddress":"钢铁街国安小区对面","poiBounds":"null","poiPcode":"150000","poiPname":"内蒙古自治区","poiCitycode":"0476","poiCityname":"赤峰市","poiAdcode":"150402","poiAdname":"红山区","poiRegion":"内蒙古自治区赤峰市红山区"},{"poiId":"B0FFI0XL9P","poiLocation":"118.911681,42.236426","poiLng":"118.911681","poiLat":"42.236426","poiName":"红山郡3期","poiType":"商务住宅;住宅区;住宅小区","poiAddress":"首地红山郡","poiBounds":"null","poiPcode":"150000","poiPname":"内蒙古自治区","poiCitycode":"0476","poiCityname":"赤峰市","poiAdcode":"150402","poiAdname":"红山区","poiRegion":"内蒙古自治区赤峰市红山区"},{"poiId":"B0FFI792NI","poiLocation":"118.914439,42.253683","poiLng":"118.914439","poiLat":"42.253683","poiName":"万达华城B区","poiType":"商务住宅;住宅区;住宅小区","poiAddress":"","poiBounds":"null","poiPcode":"150000","poiPname":"内蒙古自治区","poiCitycode":"0476","poiCityname":"赤峰市","poiAdcode":"150402","poiAdname":"红山区","poiRegion":"内蒙古自治区赤峰市红山区"},{"poiId":"B0FFI7TJ3W","poiLocation":"118.956299,42.272942","poiLng":"118.956299","poiLat":"42.272942","poiName":"万悦公寓","poiType":"商务住宅;住宅区;住宅小区","poiAddress":"哈达西街16号附近","poiBounds":"null","poiPcode":"150000","poiPname":"内蒙古自治区","poiCitycode":"0476","poiCityname":"赤峰市","poiAdcode":"150402","poiAdname":"红山区","poiRegion":"内蒙古自治区赤峰市红山区"},{"poiId":"B0FFHHKJG2","poiLocation":"118.957866,42.291794","poiLng":"118.957866","poiLat":"42.291794","poiName":"铭信佳城","poiType":"商务住宅;住宅区;住宅小区","poiAddress":"赤锡路东","poiBounds":"null","poiPcode":"150000","poiPname":"内蒙古自治区","poiCitycode":"0476","poiCityname":"赤峰市","poiAdcode":"150402","poiAdname":"红山区","poiRegion":"内蒙古自治区赤峰市红山区"},{"poiId":"B0FFHJA07H","poiLocation":"118.919507,42.233924","poiLng":"118.919507","poiLat":"42.233924","poiName":"晨曦庭院5期","poiType":"商务住宅;住宅区;住宅小区","poiAddress":"铁南大街附近","poiBounds":"null","poiPcode":"150000","poiPname":"内蒙古自治区","poiCitycode":"0476","poiCityname":"赤峰市","poiAdcode":"150402","poiAdname":"红山区","poiRegion":"内蒙古自治区赤峰市红山区"},{"poiId":"B0FFHJA0SL","poiLocation":"118.909640,42.229324","poiLng":"118.909640","poiLat":"42.229324","poiName":"翰林华府(建设中)","poiType":"商务住宅;住宅区;住宅小区","poiAddress":"大板路路南","poiBounds":"null","poiPcode":"150000","poiPname":"内蒙古自治区","poiCitycode":"0476","poiCityname":"赤峰市","poiAdcode":"150402","poiAdname":"红山区","poiRegion":"内蒙古自治区赤峰市红山区"},{"poiId":"B0FFHJBC1E","poiLocation":"118.907356,42.229904","poiLng":"118.907356","poiLat":"42.229904","poiName":"亚兴国际公馆一期","poiType":"商务住宅;住宅区;住宅小区","poiAddress":"","poiBounds":"null","poiPcode":"150000","poiPname":"内蒙古自治区","poiCitycode":"0476","poiCityname":"赤峰市","poiAdcode":"150402","poiAdname":"红山区","poiRegion":"内蒙古自治区赤峰市红山区"},{"poiId":"B0FFHJA1VN","poiLocation":"118.910927,42.226992","poiLng":"118.910927","poiLat":"42.226992","poiName":"金泽园小区","poiType":"商务住宅;住宅区;住宅小区","poiAddress":"宝山路39号附近","poiBounds":"null","poiPcode":"150000","poiPname":"内蒙古自治区","poiCitycode":"0476","poiCityname":"赤峰市","poiAdcode":"150402","poiAdname":"红山区","poiRegion":"内蒙古自治区赤峰市红山区"},{"poiId":"B0FFFZNGT5","poiLocation":"118.948784,42.272199","poiLng":"118.948784","poiLat":"42.272199","poiName":"中法小区","poiType":"商务住宅;住宅区;住宅小区","poiAddress":"哈达街黄金大厦东100米","poiBounds":"null","poiPcode":"150000","poiPname":"内蒙古自治区","poiCitycode":"0476","poiCityname":"赤峰市","poiAdcode":"150402","poiAdname":"红山区","poiRegion":"内蒙古自治区赤峰市红山区"},{"poiId":"B0FFG3S2Q7","poiLocation":"118.975900,42.275784","poiLng":"118.975900","poiLat":"42.275784","poiName":"清河家园","poiType":"商务住宅;住宅区;住宅小区","poiAddress":"清河路61号","poiBounds":"null","poiPcode":"150000","poiPname":"内蒙古自治区","poiCitycode":"0476","poiCityname":"赤峰市","poiAdcode":"150402","poiAdname":"红山区","poiRegion":"内蒙古自治区赤峰市红山区"},{"poiId":"B0FFHEE2F6","poiLocation":"118.971153,42.265406","poiLng":"118.971153","poiLat":"42.265406","poiName":"丹龙首府","poiType":"商务住宅;住宅区;住宅小区","poiAddress":"火花路西侧","poiBounds":"null","poiPcode":"150000","poiPname":"内蒙古自治区","poiCitycode":"0476","poiCityname":"赤峰市","poiAdcode":"150402","poiAdname":"红山区","poiRegion":"内蒙古自治区赤峰市红山区"},{"poiId":"B01DC0J0JC","poiLocation":"118.97329,42.268041","poiLng":"118.97329","poiLat":"42.268041","poiName":"东安二组团","poiType":"商务住宅;住宅区;住宅小区","poiAddress":"钢铁街与火花路交汇处","poiBounds":"null","poiPcode":"150000","poiPname":"内蒙古自治区","poiCitycode":"0476","poiCityname":"赤峰市","poiAdcode":"150402","poiAdname":"红山区","poiRegion":"内蒙古自治区赤峰市红山区"},{"poiId":"B0FFKWKZWE","poiLocation":"118.973959,42.271337","poiLng":"118.973959","poiLat":"42.271337","poiName":"清河小区","poiType":"商务住宅;住宅区;住宅小区","poiAddress":"四中胡同与长青街交叉口南150米","poiBounds":"null","poiPcode":"150000","poiPname":"内蒙古自治区","poiCitycode":"0476","poiCityname":"赤峰市","poiAdcode":"150402","poiAdname":"红山区","poiRegion":"内蒙古自治区赤峰市红山区"},{"poiId":"B0FFK8FMAX","poiLocation":"118.952266,42.256269","poiLng":"118.952266","poiLat":"42.256269","poiName":"公务小区","poiType":"商务住宅;住宅区;住宅小区","poiAddress":"园林路与站前街交叉口西200米","poiBounds":"null","poiPcode":"150000","poiPname":"内蒙古自治区","poiCitycode":"0476","poiCityname":"赤峰市","poiAdcode":"150402","poiAdname":"红山区","poiRegion":"内蒙古自治区赤峰市红山区"},{"poiId":"B0FFJ4JJ3L","poiLocation":"118.998187,42.285312","poiLng":"118.998187","poiLat":"42.285312","poiName":"二毛二生活区","poiType":"商务住宅;住宅区;住宅小区","poiAddress":"三道东街与红峰路交叉口西南200米","poiBounds":"null","poiPcode":"150000","poiPname":"内蒙古自治区","poiCitycode":"0476","poiCityname":"赤峰市","poiAdcode":"150402","poiAdname":"红山区","poiRegion":"内蒙古自治区赤峰市红山区"},{"poiId":"B0FFJ49936","poiLocation":"118.998382,42.287298","poiLng":"118.998382","poiLat":"42.287298","poiName":"二毛一生活区","poiType":"商务住宅;住宅区;住宅小区","poiAddress":"","poiBounds":"null","poiPcode":"150000","poiPname":"内蒙古自治区","poiCitycode":"0476","poiCityname":"赤峰市","poiAdcode":"150402","poiAdname":"红山区","poiRegion":"内蒙古自治区赤峰市红山区"},{"poiId":"B0FFKEV3NY","poiLocation":"118.947514,42.299034","poiLng":"118.947514","poiLat":"42.299034","poiName":"姚家洼社区","poiType":"商务住宅;住宅区;住宅小区","poiAddress":"昭苏河大街与赤锡路交叉口西150米","poiBounds":"null","poiPcode":"150000","poiPname":"内蒙古自治区","poiCitycode":"0476","poiCityname":"赤峰市","poiAdcode":"150402","poiAdname":"红山区","poiRegion":"内蒙古自治区赤峰市红山区"},{"poiId":"B0FFKJHBXN","poiLocation":"118.947550,42.296042","poiLng":"118.947550","poiLat":"42.296042","poiName":"金宇国际A","poiType":"商务住宅;住宅区;住宅小区","poiAddress":"桥北街与龙头山路交叉口西北200米","poiBounds":"null","poiPcode":"150000","poiPname":"内蒙古自治区","poiCitycode":"0476","poiCityname":"赤峰市","poiAdcode":"150402","poiAdname":"红山区","poiRegion":"内蒙古自治区赤峰市红山区"},{"poiId":"B0FFHENB06","poiLocation":"118.941722,42.192853","poiLng":"118.941722","poiLat":"42.192853","poiName":"金宸领地(建设中)","poiType":"商务住宅;住宅区;住宅小区","poiAddress":"创业大街","poiBounds":"null","poiPcode":"150000","poiPname":"内蒙古自治区","poiCitycode":"0476","poiCityname":"赤峰市","poiAdcode":"150402","poiAdname":"红山区","poiRegion":"内蒙古自治区赤峰市红山区"},{"poiId":"B0FFKJUKCN","poiLocation":"119.075675,42.308335","poiLng":"119.075675","poiLat":"42.308335","poiName":"英金河畔B区","poiType":"商务住宅;住宅区;住宅小区","poiAddress":"111国道北150米英金河畔附近","poiBounds":"null","poiPcode":"150000","poiPname":"内蒙古自治区","poiCitycode":"0476","poiCityname":"赤峰市","poiAdcode":"150402","poiAdname":"红山区","poiRegion":"内蒙古自治区赤峰市红山区"},{"poiId":"B01DC002P7","poiLocation":"118.976672,42.268409","poiLng":"118.976672","poiLat":"42.268409","poiName":"东安花园","poiType":"商务住宅;住宅区;住宅小区","poiAddress":"钢铁街南150米","poiBounds":"null","poiPcode":"150000","poiPname":"内蒙古自治区","poiCitycode":"0476","poiCityname":"赤峰市","poiAdcode":"150402","poiAdname":"红山区","poiRegion":"内蒙古自治区赤峰市红山区"},{"poiId":"B01DC0JL41","poiLocation":"118.956252,42.275424","poiLng":"118.956252","poiLat":"42.275424","poiName":"民族小区","poiType":"商务住宅;住宅区;住宅小区","poiAddress":"哈达街道同裕胡同北口","poiBounds":"null","poiPcode":"150000","poiPname":"内蒙古自治区","poiCitycode":"0476","poiCityname":"赤峰市","poiAdcode":"150402","poiAdname":"红山区","poiRegion":"内蒙古自治区赤峰市红山区"},{"poiId":"B0FFG6KZGD","poiLocation":"118.955338,42.258803","poiLng":"118.955338","poiLat":"42.258803","poiName":"赤峰学院第二附属医院专家公寓楼","poiType":"商务住宅;住宅区;住宅小区","poiAddress":"解放街西段西南60米","poiBounds":"null","poiPcode":"150000","poiPname":"内蒙古自治区","poiCitycode":"0476","poiCityname":"赤峰市","poiAdcode":"150402","poiAdname":"红山区","poiRegion":"内蒙古自治区赤峰市红山区"},{"poiId":"B01DC15M6N","poiLocation":"118.96668,42.261765","poiLng":"118.96668","poiLat":"42.261765","poiName":"菊香花园","poiType":"商务住宅;住宅区;住宅小区","poiAddress":"站前街","poiBounds":"null","poiPcode":"150000","poiPname":"内蒙古自治区","poiCitycode":"0476","poiCityname":"赤峰市","poiAdcode":"150402","poiAdname":"红山区","poiRegion":"内蒙古自治区赤峰市红山区"},{"poiId":"B01DC003TS","poiLocation":"118.968558,42.282217","poiLng":"118.968558","poiLat":"42.282217","poiName":"公安三小区","poiType":"商务住宅;住宅区;住宅小区","poiAddress":"二道街与双桥胡同交叉口西150米","poiBounds":"null","poiPcode":"150000","poiPname":"内蒙古自治区","poiCitycode":"0476","poiCityname":"赤峰市","poiAdcode":"150402","poiAdname":"红山区","poiRegion":"内蒙古自治区赤峰市红山区"},{"poiId":"B01DC15L17","poiLocation":"118.974451,42.266346","poiLng":"118.974451","poiLat":"42.266346","poiName":"运输小区","poiType":"商务住宅;住宅区;住宅小区","poiAddress":"火花路","poiBounds":"null","poiPcode":"150000","poiPname":"内蒙古自治区","poiCitycode":"0476","poiCityname":"赤峰市","poiAdcode":"150402","poiAdname":"红山区","poiRegion":"内蒙古自治区赤峰市红山区"},{"poiId":"B01DC1593Y","poiLocation":"118.972975,42.282864","poiLng":"118.972975","poiLat":"42.282864","poiName":"康乐小区(二道街)","poiType":"商务住宅;住宅区;住宅小区","poiAddress":"二道街4","poiBounds":"null","poiPcode":"150000","poiPname":"内蒙古自治区","poiCitycode":"0476","poiCityname":"赤峰市","poiAdcode":"150402","poiAdname":"红山区","poiRegion":"内蒙古自治区赤峰市红山区"},{"poiId":"B01DC15M74","poiLocation":"118.947784,42.262501","poiLng":"118.947784","poiLat":"42.262501","poiName":"百合园(教育局胡同)","poiType":"商务住宅;住宅区;住宅小区","poiAddress":"钢铁西街","poiBounds":"null","poiPcode":"150000","poiPname":"内蒙古自治区","poiCitycode":"0476","poiCityname":"赤峰市","poiAdcode":"150402","poiAdname":"红山区","poiRegion":"内蒙古自治区赤峰市红山区"},{"poiId":"B01DC15LBD","poiLocation":"118.944521,42.261967","poiLng":"118.944521","poiLat":"42.261967","poiName":"金百合北区","poiType":"商务住宅;住宅区;住宅小区","poiAddress":"薛家胡同与钢铁街交叉口西南150米","poiBounds":"null","poiPcode":"150000","poiPname":"内蒙古自治区","poiCitycode":"0476","poiCityname":"赤峰市","poiAdcode":"150402","poiAdname":"红山区","poiRegion":"内蒙古自治区赤峰市红山区"},{"poiId":"B01DC00301","poiLocation":"118.957888,42.266167","poiLng":"118.957888","poiLat":"42.266167","poiName":"都市家园A区","poiType":"商务住宅;住宅区;住宅小区","poiAddress":"钢铁街108","poiBounds":"null","poiPcode":"150000","poiPname":"内蒙古自治区","poiCitycode":"0476","poiCityname":"赤峰市","poiAdcode":"150402","poiAdname":"红山区","poiRegion":"内蒙古自治区赤峰市红山区"},{"poiId":"B01DC1594C","poiLocation":"118.947997,42.257781","poiLng":"118.947997","poiLat":"42.257781","poiName":"金百合南区","poiType":"商务住宅;住宅区;住宅小区","poiAddress":"解放街66号","poiBounds":"null","poiPcode":"150000","poiPname":"内蒙古自治区","poiCitycode":"0476","poiCityname":"赤峰市","poiAdcode":"150402","poiAdname":"红山区","poiRegion":"内蒙古自治区赤峰市红山区"},{"poiId":"B01DC15LVT","poiLocation":"118.949457,42.259834","poiLng":"118.949457","poiLat":"42.259834","poiName":"金百合东区","poiType":"商务住宅;住宅区;住宅小区","poiAddress":"园林路51号","poiBounds":"null","poiPcode":"150000","poiPname":"内蒙古自治区","poiCitycode":"0476","poiCityname":"赤峰市","poiAdcode":"150402","poiAdname":"红山区","poiRegion":"内蒙古自治区赤峰市红山区"},{"poiId":"B01DC0JLHE","poiLocation":"118.960653,42.260737","poiLng":"118.960653","poiLat":"42.260737","poiName":"气象小区(解放街)","poiType":"商务住宅;住宅区;住宅小区","poiAddress":"解放街万商大院南门对面","poiBounds":"null","poiPcode":"150000","poiPname":"内蒙古自治区","poiCitycode":"0476","poiCityname":"赤峰市","poiAdcode":"150402","poiAdname":"红山区","poiRegion":"内蒙古自治区赤峰市红山区"},{"poiId":"B01DC15L7D","poiLocation":"118.951466,42.274818","poiLng":"118.951466","poiLat":"42.274818","poiName":"园林小区(三道西街)","poiType":"商务住宅;住宅区;住宅小区","poiAddress":"三道街113号","poiBounds":"null","poiPcode":"150000","poiPname":"内蒙古自治区","poiCitycode":"0476","poiCityname":"赤峰市","poiAdcode":"150402","poiAdname":"红山区","poiRegion":"内蒙古自治区赤峰市红山区"},{"poiId":"B01DC15X30","poiLocation":"118.967241,42.270101","poiLng":"118.967241","poiLat":"42.270101","poiName":"团结小区","poiType":"商务住宅;住宅区;住宅小区","poiAddress":"公园东胡同与长青街交叉口西南100米","poiBounds":"null","poiPcode":"150000","poiPname":"内蒙古自治区","poiCitycode":"0476","poiCityname":"赤峰市","poiAdcode":"150402","poiAdname":"红山区","poiRegion":"内蒙古自治区赤峰市红山区"},{"poiId":"B0FFI72O6O","poiLocation":"118.948103,42.246729","poiLng":"118.948103","poiLat":"42.246729","poiName":"和泰家园","poiType":"商务住宅;住宅区;住宅小区","poiAddress":"八里铺北街南苑绿景西侧","poiBounds":"null","poiPcode":"150000","poiPname":"内蒙古自治区","poiCitycode":"0476","poiCityname":"赤峰市","poiAdcode":"150402","poiAdname":"红山区","poiRegion":"内蒙古自治区赤峰市红山区"},{"poiId":"B01DC0JKGQ","poiLocation":"118.963428,42.268585","poiLng":"118.963428","poiLat":"42.268585","poiName":"新华小区(红星路)","poiType":"商务住宅;住宅区;住宅小区","poiAddress":"钢铁街","poiBounds":"null","poiPcode":"150000","poiPname":"内蒙古自治区","poiCitycode":"0476","poiCityname":"赤峰市","poiAdcode":"150402","poiAdname":"红山区","poiRegion":"内蒙古自治区赤峰市红山区"},{"poiId":"B01DC0J0UQ","poiLocation":"118.956341,42.264624","poiLng":"118.956341","poiLat":"42.264624","poiName":"都市家园B区","poiType":"商务住宅;住宅区;住宅小区","poiAddress":"昭乌达路与钢铁街交叉口南100米","poiBounds":"null","poiPcode":"150000","poiPname":"内蒙古自治区","poiCitycode":"0476","poiCityname":"赤峰市","poiAdcode":"150402","poiAdname":"红山区","poiRegion":"内蒙古自治区赤峰市红山区"},{"poiId":"B01DC159ED","poiLocation":"118.949464,42.27255","poiLng":"118.949464","poiLat":"42.27255","poiName":"金泰花园(哈达西街)","poiType":"商务住宅;住宅区;住宅小区","poiAddress":"哈达西街108号","poiBounds":"null","poiPcode":"150000","poiPname":"内蒙古自治区","poiCitycode":"0476","poiCityname":"赤峰市","poiAdcode":"150402","poiAdname":"红山区","poiRegion":"内蒙古自治区赤峰市红山区"},{"poiId":"B01DC159CF","poiLocation":"118.955344,42.277782","poiLng":"118.955344","poiLat":"42.277782","poiName":"西屯小区","poiType":"商务住宅;住宅区;住宅小区","poiAddress":"三道西街与长脖子胡同交叉口西北100米","poiBounds":"null","poiPcode":"150000","poiPname":"内蒙古自治区","poiCitycode":"0476","poiCityname":"赤峰市","poiAdcode":"150402","poiAdname":"红山区","poiRegion":"内蒙古自治区赤峰市红山区"},{"poiId":"B01DC15M1K","poiLocation":"118.972388,42.284004","poiLng":"118.972388","poiLat":"42.284004","poiName":"清河园","poiType":"商务住宅;住宅区;住宅小区","poiAddress":"一道街4","poiBounds":"null","poiPcode":"150000","poiPname":"内蒙古自治区","poiCitycode":"0476","poiCityname":"赤峰市","poiAdcode":"150402","poiAdname":"红山区","poiRegion":"内蒙古自治区赤峰市红山区"},{"poiId":"B01DC1593X","poiLocation":"118.976516,42.270886","poiLng":"118.976516","poiLat":"42.270886","poiName":"清河花园","poiType":"商务住宅;住宅区;住宅小区","poiAddress":"长青街","poiBounds":"null","poiPcode":"150000","poiPname":"内蒙古自治区","poiCitycode":"0476","poiCityname":"赤峰市","poiAdcode":"150402","poiAdname":"红山区","poiRegion":"内蒙古自治区赤峰市红山区"},{"poiId":"B01DC0JL91","poiLocation":"118.956072,42.257450","poiLng":"118.956072","poiLat":"42.257450","poiName":"铁北小区(站前街)","poiType":"商务住宅;住宅区;住宅小区","poiAddress":"站前街128","poiBounds":"null","poiPcode":"150000","poiPname":"内蒙古自治区","poiCitycode":"0476","poiCityname":"赤峰市","poiAdcode":"150402","poiAdname":"红山区","poiRegion":"内蒙古自治区赤峰市红山区"},{"poiId":"B01DC0JKV7","poiLocation":"118.94651,42.258693","poiLng":"118.94651","poiLat":"42.258693","poiName":"鑫源小区(宁澜路)","poiType":"商务住宅;住宅区;住宅小区","poiAddress":"宁澜路12号","poiBounds":"null","poiPcode":"150000","poiPname":"内蒙古自治区","poiCitycode":"0476","poiCityname":"赤峰市","poiAdcode":"150402","poiAdname":"红山区","poiRegion":"内蒙古自治区赤峰市红山区"},{"poiId":"B01DC0058E","poiLocation":"118.978018,42.280776","poiLng":"118.978018","poiLat":"42.280776","poiName":"红山地税小区","poiType":"商务住宅;住宅区;住宅小区","poiAddress":"哈达街","poiBounds":"null","poiPcode":"150000","poiPname":"内蒙古自治区","poiCitycode":"0476","poiCityname":"赤峰市","poiAdcode":"150402","poiAdname":"红山区","poiRegion":"内蒙古自治区赤峰市红山区"},{"poiId":"B0FFFWE1PP","poiLocation":"118.935385,42.260685","poiLng":"118.935385","poiLat":"42.260685","poiName":"红山家园","poiType":"商务住宅;住宅区;住宅小区","poiAddress":"钢铁街西50米","poiBounds":"null","poiPcode":"150000","poiPname":"内蒙古自治区","poiCitycode":"0476","poiCityname":"赤峰市","poiAdcode":"150402","poiAdname":"红山区","poiRegion":"内蒙古自治区赤峰市红山区"},{"poiId":"B0FFFDJKCD","poiLocation":"118.961425,42.297483","poiLng":"118.961425","poiLat":"42.297483","poiName":"钓鱼台社区","poiType":"商务住宅;住宅区;住宅小区","poiAddress":"钓鱼台小区B区(清河路南200米)","poiBounds":"null","poiPcode":"150000","poiPname":"内蒙古自治区","poiCitycode":"0476","poiCityname":"赤峰市","poiAdcode":"150402","poiAdname":"红山区","poiRegion":"内蒙古自治区赤峰市红山区"},{"poiId":"B0FFFTN0AB","poiLocation":"118.959221,42.299142","poiLng":"118.959221","poiLat":"42.299142","poiName":"阳光希望1期","poiType":"商务住宅;住宅区;住宅小区","poiAddress":"贡格尔大街4号","poiBounds":"null","poiPcode":"150000","poiPname":"内蒙古自治区","poiCitycode":"0476","poiCityname":"赤峰市","poiAdcode":"150402","poiAdname":"红山区","poiRegion":"内蒙古自治区赤峰市红山区"},{"poiId":"B0FFH1LZY6","poiLocation":"118.946579,42.29909","poiLng":"118.946579","poiLat":"42.29909","poiName":"阳光希望家园5期","poiType":"商务住宅;住宅区;住宅小区","poiAddress":"赤锡路","poiBounds":"null","poiPcode":"150000","poiPname":"内蒙古自治区","poiCitycode":"0476","poiCityname":"赤峰市","poiAdcode":"150402","poiAdname":"红山区","poiRegion":"内蒙古自治区赤峰市红山区"},{"poiId":"B01DC15X2T","poiLocation":"118.959839,42.280490","poiLng":"118.959839","poiLat":"42.280490","poiName":"兴隆小区畅和园","poiType":"商务住宅;住宅区;住宅小区","poiAddress":"二道街与电报胡同交叉口西北100米","poiBounds":"null","poiPcode":"150000","poiPname":"内蒙古自治区","poiCitycode":"0476","poiCityname":"赤峰市","poiAdcode":"150402","poiAdname":"红山区","poiRegion":"内蒙古自治区赤峰市红山区"},{"poiId":"B0FFF3ZLNB","poiLocation":"118.944704,42.268854","poiLng":"118.944704","poiLat":"42.268854","poiName":"农行小区","poiType":"商务住宅;住宅区;住宅小区","poiAddress":"哈达西街151号","poiBounds":"null","poiPcode":"150000","poiPname":"内蒙古自治区","poiCitycode":"0476","poiCityname":"赤峰市","poiAdcode":"150402","poiAdname":"红山区","poiRegion":"内蒙古自治区赤峰市红山区"},{"poiId":"B0FFG0FGPJ","poiLocation":"118.962085,42.277228","poiLng":"118.962085","poiLat":"42.277228","poiName":"松州小区北区","poiType":"商务住宅;住宅区;住宅小区","poiAddress":"站前街42","poiBounds":"null","poiPcode":"150000","poiPname":"内蒙古自治区","poiCitycode":"0476","poiCityname":"赤峰市","poiAdcode":"150402","poiAdname":"红山区","poiRegion":"内蒙古自治区赤峰市红山区"},{"poiId":"B0FFF4FDZW","poiLocation":"118.965921,42.293932","poiLng":"118.965921","poiLat":"42.293932","poiName":"龙山鸿郡B区","poiType":"商务住宅;住宅区;住宅小区","poiAddress":"桥北大街与清河路交汇处","poiBounds":"null","poiPcode":"150000","poiPname":"内蒙古自治区","poiCitycode":"0476","poiCityname":"赤峰市","poiAdcode":"150402","poiAdname":"红山区","poiRegion":"内蒙古自治区赤峰市红山区"},{"poiId":"B0FFFTSJG5","poiLocation":"118.9461,42.262547","poiLng":"118.9461","poiLat":"42.262547","poiName":"祥和家园(薛家胡同)","poiType":"商务住宅;住宅区;住宅小区","poiAddress":"薛家胡同与钢铁街交叉口东南100米","poiBounds":"null","poiPcode":"150000","poiPname":"内蒙古自治区","poiCitycode":"0476","poiCityname":"赤峰市","poiAdcode":"150402","poiAdname":"红山区","poiRegion":"内蒙古自治区赤峰市红山区"},{"poiId":"B0FFF43PA8","poiLocation":"118.966554,42.296878","poiLng":"118.966554","poiLat":"42.296878","poiName":"阳光希望家园2期","poiType":"商务住宅;住宅区;住宅小区","poiAddress":"英金河大街附近","poiBounds":"null","poiPcode":"150000","poiPname":"内蒙古自治区","poiCitycode":"0476","poiCityname":"赤峰市","poiAdcode":"150402","poiAdname":"红山区","poiRegion":"内蒙古自治区赤峰市红山区"},{"poiId":"B0FFF4HUEC","poiLocation":"119.008529,42.287292","poiLng":"119.008529","poiLat":"42.287292","poiName":"阳光丽景小区","poiType":"商务住宅;住宅区;住宅小区","poiAddress":"三道东街与红烨大街交叉口西南150米","poiBounds":"null","poiPcode":"150000","poiPname":"内蒙古自治区","poiCitycode":"0476","poiCityname":"赤峰市","poiAdcode":"150402","poiAdname":"红山区","poiRegion":"内蒙古自治区赤峰市红山区"},{"poiId":"B0FFH1MTN4","poiLocation":"118.952441,42.303897","poiLng":"118.952441","poiLat":"42.303897","poiName":"阳光希望家园4期","poiType":"商务住宅;住宅区;住宅小区","poiAddress":"红山物流园区","poiBounds":"null","poiPcode":"150000","poiPname":"内蒙古自治区","poiCitycode":"0476","poiCityname":"赤峰市","poiAdcode":"150402","poiAdname":"红山区","poiRegion":"内蒙古自治区赤峰市红山区"},{"poiId":"B01DC15X2Y","poiLocation":"118.971226,42.280786","poiLng":"118.971226","poiLat":"42.280786","poiName":"永巨小区","poiType":"商务住宅;住宅区;住宅小区","poiAddress":"三道西街7号","poiBounds":"null","poiPcode":"150000","poiPname":"内蒙古自治区","poiCitycode":"0476","poiCityname":"赤峰市","poiAdcode":"150402","poiAdname":"红山区","poiRegion":"内蒙古自治区赤峰市红山区"},{"poiId":"B0FFF3XMRH","poiLocation":"118.983969,42.267719","poiLng":"118.983969","poiLat":"42.267719","poiName":"幸福家园(站前街)","poiType":"商务住宅;住宅区;住宅小区","poiAddress":"站前街附近","poiBounds":"null","poiPcode":"150000","poiPname":"内蒙古自治区","poiCitycode":"0476","poiCityname":"赤峰市","poiAdcode":"150402","poiAdname":"红山区","poiRegion":"内蒙古自治区赤峰市红山区"},{"poiId":"B01DC15WTY","poiLocation":"118.962594,42.276189","poiLng":"118.962594","poiLat":"42.276189","poiName":"松州小区南区","poiType":"商务住宅;住宅区;住宅小区","poiAddress":"五道街43","poiBounds":"null","poiPcode":"150000","poiPname":"内蒙古自治区","poiCitycode":"0476","poiCityname":"赤峰市","poiAdcode":"150402","poiAdname":"红山区","poiRegion":"内蒙古自治区赤峰市红山区"},{"poiId":"B0FFG27VHQ","poiLocation":"118.971608,42.286337","poiLng":"118.971608","poiLat":"42.286337","poiName":"清河逸景","poiType":"商务住宅;住宅区;住宅小区","poiAddress":"北环路与清河路交叉口旁(原赤峰荣济堂药业北门东侧)","poiBounds":"null","poiPcode":"150000","poiPname":"内蒙古自治区","poiCitycode":"0476","poiCityname":"赤峰市","poiAdcode":"150402","poiAdname":"红山区","poiRegion":"内蒙古自治区赤峰市红山区"},{"poiId":"B0FFG0NZS2","poiLocation":"118.964030,42.295157","poiLng":"118.964030","poiLat":"42.295157","poiName":"钓鱼台小区D区","poiType":"商务住宅;住宅区;住宅小区","poiAddress":"钓鱼台第11小学对面","poiBounds":"null","poiPcode":"150000","poiPname":"内蒙古自治区","poiCitycode":"0476","poiCityname":"赤峰市","poiAdcode":"150402","poiAdname":"红山区","poiRegion":"内蒙古自治区赤峰市红山区"},{"poiId":"B0FFF4DDJQ","poiLocation":"118.942857,42.299079","poiLng":"118.942857","poiLat":"42.299079","poiName":"荷枫水岸","poiType":"商务住宅;住宅区;住宅小区","poiAddress":"桥北街与龙头山路交叉口西北150米","poiBounds":"null","poiPcode":"150000","poiPname":"内蒙古自治区","poiCitycode":"0476","poiCityname":"赤峰市","poiAdcode":"150402","poiAdname":"红山区","poiRegion":"内蒙古自治区赤峰市红山区"},{"poiId":"B0FFG0GW3W","poiLocation":"118.95112,42.299398","poiLng":"118.95112","poiLat":"42.299398","poiName":"金宇国际B区","poiType":"商务住宅;住宅区;住宅小区","poiAddress":"205省道","poiBounds":"null","poiPcode":"150000","poiPname":"内蒙古自治区","poiCitycode":"0476","poiCityname":"赤峰市","poiAdcode":"150402","poiAdname":"红山区","poiRegion":"内蒙古自治区赤峰市红山区"},{"poiId":"B0FFF41XKE","poiLocation":"118.912388,42.234222","poiLng":"118.912388","poiLat":"42.234222","poiName":"首地红山郡","poiType":"商务住宅;住宅区;住宅小区","poiAddress":"宝山路39号","poiBounds":"null","poiPcode":"150000","poiPname":"内蒙古自治区","poiCitycode":"0476","poiCityname":"赤峰市","poiAdcode":"150402","poiAdname":"红山区","poiRegion":"内蒙古自治区赤峰市红山区"},{"poiId":"B01DC0JLEI","poiLocation":"118.962,42.259136","poiLng":"118.962","poiLat":"42.259136","poiName":"盛世嘉园南区","poiType":"商务住宅;住宅区;住宅小区","poiAddress":"站前街北150米","poiBounds":"null","poiPcode":"150000","poiPname":"内蒙古自治区","poiCitycode":"0476","poiCityname":"赤峰市","poiAdcode":"150402","poiAdname":"红山区","poiRegion":"内蒙古自治区赤峰市红山区"},{"poiId":"B01DC00H03","poiLocation":"118.964671,42.263591","poiLng":"118.964671","poiLat":"42.263591","poiName":"怡安小区(解放街)","poiType":"商务住宅;住宅区;住宅小区","poiAddress":"解放街12号","poiBounds":"null","poiPcode":"150000","poiPname":"内蒙古自治区","poiCitycode":"0476","poiCityname":"赤峰市","poiAdcode":"150402","poiAdname":"红山区","poiRegion":"内蒙古自治区赤峰市红山区"},{"poiId":"B01DC15M3T","poiLocation":"118.941310,42.266636","poiLng":"118.941310","poiLat":"42.266636","poiName":"盛世嘉园B区","poiType":"商务住宅;住宅区;住宅小区","poiAddress":"哈达西街171号","poiBounds":"null","poiPcode":"150000","poiPname":"内蒙古自治区","poiCitycode":"0476","poiCityname":"赤峰市","poiAdcode":"150402","poiAdname":"红山区","poiRegion":"内蒙古自治区赤峰市红山区"},{"poiId":"B01DC15LZQ","poiLocation":"118.943328,42.267230","poiLng":"118.943328","poiLat":"42.267230","poiName":"盛世嘉园A区","poiType":"商务住宅;住宅区;住宅小区","poiAddress":"哈达西街157号","poiBounds":"null","poiPcode":"150000","poiPname":"内蒙古自治区","poiCitycode":"0476","poiCityname":"赤峰市","poiAdcode":"150402","poiAdname":"红山区","poiRegion":"内蒙古自治区赤峰市红山区"},{"poiId":"B01DC0JLN2","poiLocation":"118.976694,42.272730","poiLng":"118.976694","poiLat":"42.272730","poiName":"热电小区","poiType":"商务住宅;住宅区;住宅小区","poiAddress":"清河路29","poiBounds":"null","poiPcode":"150000","poiPname":"内蒙古自治区","poiCitycode":"0476","poiCityname":"赤峰市","poiAdcode":"150402","poiAdname":"红山区","poiRegion":"内蒙古自治区赤峰市红山区"},{"poiId":"B01DC0JLJW","poiLocation":"118.975234,42.272659","poiLng":"118.975234","poiLat":"42.272659","poiName":"长青花园(长青街)","poiType":"商务住宅;住宅区;住宅小区","poiAddress":"长青街61","poiBounds":"null","poiPcode":"150000","poiPname":"内蒙古自治区","poiCitycode":"0476","poiCityname":"赤峰市","poiAdcode":"150402","poiAdname":"红山区","poiRegion":"内蒙古自治区赤峰市红山区"},{"poiId":"B01DC0JL1O","poiLocation":"118.971367,42.280291","poiLng":"118.971367","poiLat":"42.280291","poiName":"永巨小区二组团","poiType":"商务住宅;住宅区;住宅小区","poiAddress":"三道街与太平街胡同交叉口东南150米","poiBounds":"null","poiPcode":"150000","poiPname":"内蒙古自治区","poiCitycode":"0476","poiCityname":"赤峰市","poiAdcode":"150402","poiAdname":"红山区","poiRegion":"内蒙古自治区赤峰市红山区"},{"poiId":"B01DC0JLM1","poiLocation":"118.96067,42.280249","poiLng":"118.96067","poiLat":"42.280249","poiName":"兴隆小区(三道西街)","poiType":"商务住宅;住宅区;住宅小区","poiAddress":"三道西街与电报胡同交叉口北100米","poiBounds":"null","poiPcode":"150000","poiPname":"内蒙古自治区","poiCitycode":"0476","poiCityname":"赤峰市","poiAdcode":"150402","poiAdname":"红山区","poiRegion":"内蒙古自治区赤峰市红山区"},{"poiId":"B01DC159EB","poiLocation":"118.939892,42.256286","poiLng":"118.939892","poiLat":"42.256286","poiName":"绿色家园(解放西街)","poiType":"商务住宅;住宅区;住宅小区","poiAddress":"西肉联路","poiBounds":"null","poiPcode":"150000","poiPname":"内蒙古自治区","poiCitycode":"0476","poiCityname":"赤峰市","poiAdcode":"150402","poiAdname":"红山区","poiRegion":"内蒙古自治区赤峰市红山区"},{"poiId":"B01DC00BSL","poiLocation":"118.941093,42.259849","poiLng":"118.941093","poiLat":"42.259849","poiName":"松州园","poiType":"商务住宅;住宅区;住宅小区","poiAddress":"宁澜路西150米","poiBounds":"null","poiPcode":"150000","poiPname":"内蒙古自治区","poiCitycode":"0476","poiCityname":"赤峰市","poiAdcode":"150402","poiAdname":"红山区","poiRegion":"内蒙古自治区赤峰市红山区"},{"poiId":"B01DC1593R","poiLocation":"118.94642,42.266861","poiLng":"118.94642","poiLat":"42.266861","poiName":"北馨花园(长青街)","poiType":"商务住宅;住宅区;住宅小区","poiAddress":"园林路与长青街交汇处西南150米","poiBounds":"null","poiPcode":"150000","poiPname":"内蒙古自治区","poiCitycode":"0476","poiCityname":"赤峰市","poiAdcode":"150402","poiAdname":"红山区","poiRegion":"内蒙古自治区赤峰市红山区"},{"poiId":"B01DC0JLRB","poiLocation":"118.974587,42.270765","poiLng":"118.974587","poiLat":"42.270765","poiName":"环宇小区","poiType":"商务住宅;住宅区;住宅小区","poiAddress":"钢铁东街","poiBounds":"null","poiPcode":"150000","poiPname":"内蒙古自治区","poiCitycode":"0476","poiCityname":"赤峰市","poiAdcode":"150402","poiAdname":"红山区","poiRegion":"内蒙古自治区赤峰市红山区"},{"poiId":"B01DC00H07","poiLocation":"118.970019,42.269657","poiLng":"118.970019","poiLat":"42.269657","poiName":"怡康雅居","poiType":"商务住宅;住宅区;住宅小区","poiAddress":"火花路97号","poiBounds":"null","poiPcode":"150000","poiPname":"内蒙古自治区","poiCitycode":"0476","poiCityname":"赤峰市","poiAdcode":"150402","poiAdname":"红山区","poiRegion":"内蒙古自治区赤峰市红山区"},{"poiId":"B01DC1593U","poiLocation":"118.943789,42.270035","poiLng":"118.943789","poiLat":"42.270035","poiName":"阳光家园(哈达西街)","poiType":"商务住宅;住宅区;住宅小区","poiAddress":"哈达西街158号","poiBounds":"null","poiPcode":"150000","poiPname":"内蒙古自治区","poiCitycode":"0476","poiCityname":"赤峰市","poiAdcode":"150402","poiAdname":"红山区","poiRegion":"内蒙古自治区赤峰市红山区"},{"poiId":"B01DC0JB3H","poiLocation":"118.982055,42.285929","poiLng":"118.982055","poiLat":"42.285929","poiName":"康居小区(东园街)","poiType":"商务住宅;住宅区;住宅小区","poiAddress":"东城大街","poiBounds":"null","poiPcode":"150000","poiPname":"内蒙古自治区","poiCitycode":"0476","poiCityname":"赤峰市","poiAdcode":"150402","poiAdname":"红山区","poiRegion":"内蒙古自治区赤峰市红山区"},{"poiId":"B01DC00G28","poiLocation":"118.954424,42.262208","poiLng":"118.954424","poiLat":"42.262208","poiName":"昭乌达社区","poiType":"商务住宅;住宅区;住宅小区","poiAddress":"园林路56号","poiBounds":"null","poiPcode":"150000","poiPname":"内蒙古自治区","poiCitycode":"0476","poiCityname":"赤峰市","poiAdcode":"150402","poiAdname":"红山区","poiRegion":"内蒙古自治区赤峰市红山区"},{"poiId":"B01DC00BD6","poiLocation":"118.962899,42.265494","poiLng":"118.962899","poiLat":"42.265494","poiName":"双拥小区","poiType":"商务住宅;住宅区;住宅小区","poiAddress":"钢铁街81","poiBounds":"null","poiPcode":"150000","poiPname":"内蒙古自治区","poiCitycode":"0476","poiCityname":"赤峰市","poiAdcode":"150402","poiAdname":"红山区","poiRegion":"内蒙古自治区赤峰市红山区"},{"poiId":"B01DC1593W","poiLocation":"118.952133,42.265642","poiLng":"118.952133","poiLat":"42.265642","poiName":"钟楼小区","poiType":"商务住宅;住宅区;住宅小区","poiAddress":"钢铁街北150米","poiBounds":"null","poiPcode":"150000","poiPname":"内蒙古自治区","poiCitycode":"0476","poiCityname":"赤峰市","poiAdcode":"150402","poiAdname":"红山区","poiRegion":"内蒙古自治区赤峰市红山区"},{"poiId":"B01DC0J0Y8","poiLocation":"118.941288,42.268201","poiLng":"118.941288","poiLat":"42.268201","poiName":"百合花园(哈达西街)","poiType":"商务住宅;住宅区;住宅小区","poiAddress":"哈达西街168号","poiBounds":"null","poiPcode":"150000","poiPname":"内蒙古自治区","poiCitycode":"0476","poiCityname":"赤峰市","poiAdcode":"150402","poiAdname":"红山区","poiRegion":"内蒙古自治区赤峰市红山区"}]