[{"poiId":"B0FFI8BWKX","poiLocation":"119.332400,41.592013","poiLng":"119.332400","poiLat":"41.592013","poiName":"水利小区","poiType":"商务住宅;住宅区;住宅小区","poiAddress":"长青路东侧50-6附近","poiBounds":"null","poiPcode":"150000","poiPname":"内蒙古自治区","poiCitycode":"0476","poiCityname":"赤峰市","poiAdcode":"150429","poiAdname":"宁城县","poiRegion":"内蒙古自治区/赤峰市/宁城县"},{"poiId":"B01DC0I6AL","poiLocation":"119.337681,41.596163","poiLng":"119.337681","poiLat":"41.596163","poiName":"宁铁花园","poiType":"商务住宅;住宅区;住宅小区","poiAddress":"天义镇塞飞亚路","poiBounds":"null","poiPcode":"150000","poiPname":"内蒙古自治区","poiCitycode":"0476","poiCityname":"赤峰市","poiAdcode":"150429","poiAdname":"宁城县","poiRegion":"内蒙古自治区/赤峰市/宁城县"},{"poiId":"B0FFI8L0O2","poiLocation":"119.345156,41.594268","poiLng":"119.345156","poiLat":"41.594268","poiName":"广电中心宿舍楼","poiType":"商务住宅;住宅区;住宅小区","poiAddress":"双拥街与大宁路交叉口东北100米","poiBounds":"null","poiPcode":"150000","poiPname":"内蒙古自治区","poiCitycode":"0476","poiCityname":"赤峰市","poiAdcode":"150429","poiAdname":"宁城县","poiRegion":"内蒙古自治区/赤峰市/宁城县"},{"poiId":"B0FFI8KPN1","poiLocation":"119.344134,41.596380","poiLng":"119.344134","poiLat":"41.596380","poiName":"宁城县畜牧局小区","poiType":"商务住宅;住宅区;住宅小区","poiAddress":"双拥街11-5号附近","poiBounds":"null","poiPcode":"150000","poiPname":"内蒙古自治区","poiCitycode":"0476","poiCityname":"赤峰市","poiAdcode":"150429","poiAdname":"宁城县","poiRegion":"内蒙古自治区/赤峰市/宁城县"},{"poiId":"B0FFI8CPFF","poiLocation":"119.317766,41.588673","poiLng":"119.317766","poiLat":"41.588673","poiName":"祥和家园","poiType":"商务住宅;住宅区;住宅小区","poiAddress":"园林路西150米","poiBounds":"[[119.317329,41.589168],[119.317254,41.588291],[119.317308,41.588223],[119.318203,41.588177],[119.318281,41.58912],[119.317329,41.589168]]","poiPcode":"150000","poiPname":"内蒙古自治区","poiCitycode":"0476","poiCityname":"赤峰市","poiAdcode":"150429","poiAdname":"宁城县","poiRegion":"内蒙古自治区/赤峰市/宁城县"},{"poiId":"B0FFI8BSFF","poiLocation":"119.335564,41.595306","poiLng":"119.335564","poiLat":"41.595306","poiName":"鼎盛小区","poiType":"商务住宅;住宅区;住宅小区","poiAddress":"兴隆街与契丹街交叉口南100米","poiBounds":"null","poiPcode":"150000","poiPname":"内蒙古自治区","poiCitycode":"0476","poiCityname":"赤峰市","poiAdcode":"150429","poiAdname":"宁城县","poiRegion":"内蒙古自治区/赤峰市/宁城县"},{"poiId":"B0FFI8BRIE","poiLocation":"119.332682,41.593574","poiLng":"119.332682","poiLat":"41.593574","poiName":"二轻住宅楼","poiType":"商务住宅;住宅区;住宅小区","poiAddress":"友谊路29-1附近","poiBounds":"null","poiPcode":"150000","poiPname":"内蒙古自治区","poiCitycode":"0476","poiCityname":"赤峰市","poiAdcode":"150429","poiAdname":"宁城县","poiRegion":"内蒙古自治区/赤峰市/宁城县"},{"poiId":"B0FFI8CABI","poiLocation":"119.348391,41.590493","poiLng":"119.348391","poiLat":"41.590493","poiName":"京南佳苑","poiType":"商务住宅;住宅区;住宅小区","poiAddress":"坤都伦街与红领巾路交叉口南150米","poiBounds":"[[119.34828,41.589777],[119.349285,41.590215],[119.348884,41.590734],[119.348646,41.59103],[119.348525,41.591196],[119.347488,41.59079],[119.34828,41.589777]]","poiPcode":"150000","poiPname":"内蒙古自治区","poiCitycode":"0476","poiCityname":"赤峰市","poiAdcode":"150429","poiAdname":"宁城县","poiRegion":"内蒙古自治区/赤峰市/宁城县"},{"poiId":"B01DC0JAIK","poiLocation":"119.34799,41.600646","poiLng":"119.34799","poiLat":"41.600646","poiName":"中京家园","poiType":"商务住宅;住宅区;住宅小区","poiAddress":"天义镇建设路","poiBounds":"[[119.348559,41.601748],[119.347716,41.601417],[119.347819,41.601237],[119.347186,41.60104],[119.346996,41.600962],[119.347843,41.599783],[119.348042,41.599729],[119.34912,41.600238],[119.348897,41.600517],[119.348288,41.600242],[119.348047,41.600872],[119.348259,41.600992],[119.348197,41.601139],[119.348243,41.601183],[119.348439,41.601225],[119.348447,41.601265],[119.348361,41.601401],[119.348696,41.601558],[119.348559,41.601748]]","poiPcode":"150000","poiPname":"内蒙古自治区","poiCitycode":"0476","poiCityname":"赤峰市","poiAdcode":"150429","poiAdname":"宁城县","poiRegion":"内蒙古自治区/赤峰市/宁城县"},{"poiId":"B01DC16MYN","poiLocation":"119.323625,41.595369","poiLng":"119.323625","poiLat":"41.595369","poiName":"金宇城B区","poiType":"商务住宅;住宅区;住宅小区","poiAddress":"天马街23号附近","poiBounds":"[[119.32259,41.593835],[119.325909,41.59526],[119.324644,41.596911],[119.321341,41.595464],[119.32259,41.593835]]","poiPcode":"150000","poiPname":"内蒙古自治区","poiCitycode":"0476","poiCityname":"赤峰市","poiAdcode":"150429","poiAdname":"宁城县","poiRegion":"内蒙古自治区/赤峰市/宁城县"},{"poiId":"B01DC15X2S","poiLocation":"119.334082,41.590905","poiLng":"119.334082","poiLat":"41.590905","poiName":"友谊小区","poiType":"商务住宅;住宅区;住宅小区","poiAddress":"友谊路21-5号附近","poiBounds":"[[119.333247,41.590933],[119.334493,41.591462],[119.334878,41.590943],[119.334875,41.590881],[119.333711,41.590337],[119.333247,41.590933]]","poiPcode":"150000","poiPname":"内蒙古自治区","poiCitycode":"0476","poiCityname":"赤峰市","poiAdcode":"150429","poiAdname":"宁城县","poiRegion":"内蒙古自治区/赤峰市/宁城县"},{"poiId":"B01DC0I5JZ","poiLocation":"119.350555,41.604507","poiLng":"119.350555","poiLat":"41.604507","poiName":"滨河小区(滨河路)","poiType":"商务住宅;住宅区;住宅小区","poiAddress":"北环路与滨河路交叉口东100米","poiBounds":"[[119.349702,41.604915],[119.351022,41.60533],[119.3511,41.60518],[119.351049,41.605059],[119.351035,41.603717],[119.35056,41.603573],[119.349702,41.604915]]","poiPcode":"150000","poiPname":"内蒙古自治区","poiCitycode":"0476","poiCityname":"赤峰市","poiAdcode":"150429","poiAdname":"宁城县","poiRegion":"内蒙古自治区/赤峰市/宁城县"},{"poiId":"B0FFJNOVSV","poiLocation":"119.312198,41.602334","poiLng":"119.312198","poiLat":"41.602334","poiName":"吉安家园","poiType":"商务住宅;住宅区;住宅小区","poiAddress":"园林路东150米","poiBounds":"null","poiPcode":"150000","poiPname":"内蒙古自治区","poiCitycode":"0476","poiCityname":"赤峰市","poiAdcode":"150429","poiAdname":"宁城县","poiRegion":"内蒙古自治区/赤峰市/宁城县"},{"poiId":"B01DC0I5FC","poiLocation":"119.331856,41.590387","poiLng":"119.331856","poiLat":"41.590387","poiName":"长青玉龙小区","poiType":"商务住宅;住宅区;住宅小区","poiAddress":"昌盛街与长青路交叉口北150米","poiBounds":"[[119.33213,41.59087],[119.331162,41.590418],[119.331558,41.589894],[119.332576,41.590378],[119.332366,41.590602],[119.33213,41.59087]]","poiPcode":"150000","poiPname":"内蒙古自治区","poiCitycode":"0476","poiCityname":"赤峰市","poiAdcode":"150429","poiAdname":"宁城县","poiRegion":"内蒙古自治区/赤峰市/宁城县"},{"poiId":"B01DC0JGFG","poiLocation":"119.336187,41.591948","poiLng":"119.336187","poiLat":"41.591948","poiName":"华鑫花园小区","poiType":"商务住宅;住宅区;住宅小区","poiAddress":"花园街1号","poiBounds":"[[119.335863,41.591371],[119.33697,41.591881],[119.336746,41.592252],[119.336587,41.592525],[119.335976,41.592279],[119.335364,41.591975],[119.335863,41.591371]]","poiPcode":"150000","poiPname":"内蒙古自治区","poiCitycode":"0476","poiCityname":"赤峰市","poiAdcode":"150429","poiAdname":"宁城县","poiRegion":"内蒙古自治区/赤峰市/宁城县"},{"poiId":"B01DC0I4YB","poiLocation":"119.340165,41.598757","poiLng":"119.340165","poiLat":"41.598757","poiName":"鑫虹桥小区","poiType":"商务住宅;住宅区;住宅小区","poiAddress":"天义镇大宁路","poiBounds":"null","poiPcode":"150000","poiPname":"内蒙古自治区","poiCitycode":"0476","poiCityname":"赤峰市","poiAdcode":"150429","poiAdname":"宁城县","poiRegion":"内蒙古自治区/赤峰市/宁城县"},{"poiId":"B01DC0J1GM","poiLocation":"119.263795,41.797131","poiLng":"119.263795","poiLat":"41.797131","poiName":"红远佳苑","poiType":"商务住宅;住宅区;住宅小区","poiAddress":"汐子村(东门)","poiBounds":"null","poiPcode":"150000","poiPname":"内蒙古自治区","poiCitycode":"0476","poiCityname":"赤峰市","poiAdcode":"150429","poiAdname":"宁城县","poiRegion":"内蒙古自治区/赤峰市/宁城县"},{"poiId":"B0FFGZ3G8G","poiLocation":"119.340235,41.600617","poiLng":"119.340235","poiLat":"41.600617","poiName":"幸福佳苑","poiType":"商务住宅;住宅区;住宅小区","poiAddress":"大宁路与天马街交叉口东南100米","poiBounds":"null","poiPcode":"150000","poiPname":"内蒙古自治区","poiCitycode":"0476","poiCityname":"赤峰市","poiAdcode":"150429","poiAdname":"宁城县","poiRegion":"内蒙古自治区/赤峰市/宁城县"},{"poiId":"B0FFG9EDRJ","poiLocation":"119.33431,41.607206","poiLng":"119.33431","poiLat":"41.607206","poiName":"丁香园2期","poiType":"商务住宅;住宅区;住宅小区","poiAddress":"大宁路67-9号附近","poiBounds":"[[119.335078,41.606729],[119.334504,41.606496],[119.333844,41.607293],[119.333509,41.60772],[119.333903,41.607878],[119.334096,41.607706],[119.334289,41.60779],[119.335078,41.606729]]","poiPcode":"150000","poiPname":"内蒙古自治区","poiCitycode":"0476","poiCityname":"赤峰市","poiAdcode":"150429","poiAdname":"宁城县","poiRegion":"内蒙古自治区/赤峰市/宁城县"},{"poiId":"B0FFG2ZHUY","poiLocation":"119.340888,41.602249","poiLng":"119.340888","poiLat":"41.602249","poiName":"辽京馨都","poiType":"商务住宅;住宅区;住宅小区","poiAddress":"大宁路与天马街交叉口东北200米","poiBounds":"[[119.340038,41.602548],[119.340577,41.601575],[119.341784,41.601996],[119.341138,41.602913],[119.340038,41.602548]]","poiPcode":"150000","poiPname":"内蒙古自治区","poiCitycode":"0476","poiCityname":"赤峰市","poiAdcode":"150429","poiAdname":"宁城县","poiRegion":"内蒙古自治区/赤峰市/宁城县"},{"poiId":"B0FFG267CJ","poiLocation":"119.325522,41.596198","poiLng":"119.325522","poiLat":"41.596198","poiName":"兴隆社区","poiType":"商务住宅;住宅区;住宅小区","poiAddress":"长青路65-5号附近","poiBounds":"null","poiPcode":"150000","poiPname":"内蒙古自治区","poiCitycode":"0476","poiCityname":"赤峰市","poiAdcode":"150429","poiAdname":"宁城县","poiRegion":"内蒙古自治区/赤峰市/宁城县"},{"poiId":"B0FFG0R7O7","poiLocation":"119.341039,41.594905","poiLng":"119.341039","poiLat":"41.594905","poiName":"朝阳小区","poiType":"商务住宅;住宅区;住宅小区","poiAddress":"赛飞亚路东200米","poiBounds":"null","poiPcode":"150000","poiPname":"内蒙古自治区","poiCitycode":"0476","poiCityname":"赤峰市","poiAdcode":"150429","poiAdname":"宁城县","poiRegion":"内蒙古自治区/赤峰市/宁城县"},{"poiId":"B0FFG0Q8IL","poiLocation":"119.340969,41.600401","poiLng":"119.340969","poiLat":"41.600401","poiName":"幸福小区","poiType":"商务住宅;住宅区;住宅小区","poiAddress":"大宁路56-32号附近","poiBounds":"[[119.340149,41.600481],[119.340613,41.599835],[119.341798,41.600346],[119.341332,41.600954],[119.340149,41.600481]]","poiPcode":"150000","poiPname":"内蒙古自治区","poiCitycode":"0476","poiCityname":"赤峰市","poiAdcode":"150429","poiAdname":"宁城县","poiRegion":"内蒙古自治区/赤峰市/宁城县"},{"poiId":"B0FFG05ICE","poiLocation":"119.339126,41.598494","poiLng":"119.339126","poiLat":"41.598494","poiName":"君临天下","poiType":"商务住宅;住宅区;住宅小区","poiAddress":"契丹街与高桥路交叉口东北150米","poiBounds":"[[119.340126,41.598591],[119.338468,41.597907],[119.338106,41.59836],[119.33976,41.599096],[119.340126,41.598591]]","poiPcode":"150000","poiPname":"内蒙古自治区","poiCitycode":"0476","poiCityname":"赤峰市","poiAdcode":"150429","poiAdname":"宁城县","poiRegion":"内蒙古自治区/赤峰市/宁城县"},{"poiId":"B0FFG0D6VH","poiLocation":"119.334654,41.589051","poiLng":"119.334654","poiLat":"41.589051","poiName":"福临家园","poiType":"商务住宅;住宅区;住宅小区","poiAddress":"友谊路与昌盛街交叉口西南150米","poiBounds":"[[119.333587,41.588063],[119.332789,41.588945],[119.334061,41.589509],[119.334124,41.589435],[119.334234,41.589487],[119.334211,41.589521],[119.335308,41.590023],[119.33549,41.590121],[119.335818,41.589749],[119.335557,41.589646],[119.335898,41.589258],[119.336095,41.589356],[119.336548,41.588782],[119.335877,41.588435],[119.335416,41.588916],[119.335304,41.588961],[119.333587,41.588063]]","poiPcode":"150000","poiPname":"内蒙古自治区","poiCitycode":"0476","poiCityname":"赤峰市","poiAdcode":"150429","poiAdname":"宁城县","poiRegion":"内蒙古自治区/赤峰市/宁城县"},{"poiId":"B0FFGNHHFB","poiLocation":"119.314948,41.593572","poiLng":"119.314948","poiLat":"41.593572","poiName":"新农村小区","poiType":"商务住宅;住宅区;住宅小区","poiAddress":"盛鑫佳苑南侧","poiBounds":"null","poiPcode":"150000","poiPname":"内蒙古自治区","poiCitycode":"0476","poiCityname":"赤峰市","poiAdcode":"150429","poiAdname":"宁城县","poiRegion":"内蒙古自治区/赤峰市/宁城县"},{"poiId":"B0FFGZFTYE","poiLocation":"119.327607,41.586381","poiLng":"119.327607","poiLat":"41.586381","poiName":"阳光丽景","poiType":"商务住宅;住宅区;住宅小区","poiAddress":"柳荫路5号","poiBounds":"[[119.326913,41.58707],[119.326768,41.585784],[119.328297,41.58573],[119.328366,41.585742],[119.328393,41.58576],[119.328369,41.586988],[119.326913,41.58707]]","poiPcode":"150000","poiPname":"内蒙古自治区","poiCitycode":"0476","poiCityname":"赤峰市","poiAdcode":"150429","poiAdname":"宁城县","poiRegion":"内蒙古自治区/赤峰市/宁城县"},{"poiId":"B0FFHEETXD","poiLocation":"119.332877,41.596025","poiLng":"119.332877","poiLat":"41.596025","poiName":"嘉园小区","poiType":"商务住宅;住宅区;住宅小区","poiAddress":"兴隆街与友谊路交叉口北200米","poiBounds":"null","poiPcode":"150000","poiPname":"内蒙古自治区","poiCitycode":"0476","poiCityname":"赤峰市","poiAdcode":"150429","poiAdname":"宁城县","poiRegion":"内蒙古自治区/赤峰市/宁城县"},{"poiId":"B0FFHCQZHV","poiLocation":"119.356308,41.610078","poiLng":"119.356308","poiLat":"41.610078","poiName":"东方新城","poiType":"商务住宅;住宅区;住宅小区","poiAddress":"小新线","poiBounds":"[[119.355852,41.610718],[119.35671,41.610457],[119.356616,41.610295],[119.357244,41.61013],[119.356793,41.60945],[119.355637,41.609855],[119.355655,41.6099],[119.355427,41.609986],[119.355516,41.610148],[119.355852,41.610718]]","poiPcode":"150000","poiPname":"内蒙古自治区","poiCitycode":"0476","poiCityname":"赤峰市","poiAdcode":"150429","poiAdname":"宁城县","poiRegion":"内蒙古自治区/赤峰市/宁城县"},{"poiId":"B0FFHCO3SB","poiLocation":"119.343883,41.596934","poiLng":"119.343883","poiLat":"41.596934","poiName":"远达商住小区","poiType":"商务住宅;住宅区;住宅小区","poiAddress":"双拥街11-5号附近","poiBounds":"null","poiPcode":"150000","poiPname":"内蒙古自治区","poiCitycode":"0476","poiCityname":"赤峰市","poiAdcode":"150429","poiAdname":"宁城县","poiRegion":"内蒙古自治区/赤峰市/宁城县"},{"poiId":"B0FFHWXFMP","poiLocation":"118.883094,41.636558","poiLng":"118.883094","poiLat":"41.636558","poiName":"兴隆小区","poiType":"商务住宅;住宅区;住宅小区","poiAddress":"大三线与207省道交叉口西南200米","poiBounds":"null","poiPcode":"150000","poiPname":"内蒙古自治区","poiCitycode":"0476","poiCityname":"赤峰市","poiAdcode":"150429","poiAdname":"宁城县","poiRegion":"内蒙古自治区/赤峰市/宁城县"},{"poiId":"B0FFHOC4D9","poiLocation":"119.336785,41.603852","poiLng":"119.336785","poiLat":"41.603852","poiName":"丁香园1期","poiType":"商务住宅;住宅区;住宅小区","poiAddress":"大宁路西50米","poiBounds":"[[119.33695,41.604025],[119.336376,41.603834],[119.33681,41.603114],[119.337422,41.603351],[119.33695,41.604025]]","poiPcode":"150000","poiPname":"内蒙古自治区","poiCitycode":"0476","poiCityname":"赤峰市","poiAdcode":"150429","poiAdname":"宁城县","poiRegion":"内蒙古自治区/赤峰市/宁城县"},{"poiId":"B0FFI72UI9","poiLocation":"119.317999,41.587916","poiLng":"119.317999","poiLat":"41.587916","poiName":"祥盛社区","poiType":"商务住宅;住宅区;住宅小区","poiAddress":"园林路西200米","poiBounds":"null","poiPcode":"150000","poiPname":"内蒙古自治区","poiCitycode":"0476","poiCityname":"赤峰市","poiAdcode":"150429","poiAdname":"宁城县","poiRegion":"内蒙古自治区/赤峰市/宁城县"},{"poiId":"B0FFGB39VJ","poiLocation":"119.315094,41.593463","poiLng":"119.315094","poiLat":"41.593463","poiName":"五间房新村","poiType":"商务住宅;住宅区;住宅小区","poiAddress":"","poiBounds":"[[119.31258,41.593828],[119.31402,41.59198],[119.314122,41.591934],[119.314232,41.591922],[119.316729,41.592395],[119.317561,41.592556],[119.317629,41.592582],[119.317667,41.592646],[119.317674,41.59272],[119.315826,41.595164],[119.315745,41.595206],[119.315589,41.595234],[119.315522,41.595238],[119.314433,41.594788],[119.312653,41.593983],[119.312605,41.593945],[119.31257,41.593894],[119.31258,41.593828]]","poiPcode":"150000","poiPname":"内蒙古自治区","poiCitycode":"0476","poiCityname":"赤峰市","poiAdcode":"150429","poiAdname":"宁城县","poiRegion":"内蒙古自治区/赤峰市/宁城县"},{"poiId":"B0FFH1SUPQ","poiLocation":"119.329593,41.59704","poiLng":"119.329593","poiLat":"41.59704","poiName":"金宇城A区","poiType":"商务住宅;住宅区;住宅小区","poiAddress":"金融街南100米","poiBounds":"[[119.327877,41.597272],[119.33124,41.597765],[119.331428,41.596983],[119.330578,41.596854],[119.330487,41.596636],[119.329698,41.596529],[119.328083,41.596287],[119.327877,41.597272]]","poiPcode":"150000","poiPname":"内蒙古自治区","poiCitycode":"0476","poiCityname":"赤峰市","poiAdcode":"150429","poiAdname":"宁城县","poiRegion":"内蒙古自治区/赤峰市/宁城县"},{"poiId":"B0FFH1SSVP","poiLocation":"119.345583,41.602161","poiLng":"119.345583","poiLat":"41.602161","poiName":"锦绣家园","poiType":"商务住宅;住宅区;住宅小区","poiAddress":"建设路13-23号附近","poiBounds":"null","poiPcode":"150000","poiPname":"内蒙古自治区","poiCitycode":"0476","poiCityname":"赤峰市","poiAdcode":"150429","poiAdname":"宁城县","poiRegion":"内蒙古自治区/赤峰市/宁城县"},{"poiId":"B0FFH96PLX","poiLocation":"119.346498,41.594059","poiLng":"119.346498","poiLat":"41.594059","poiName":"武装部小区","poiType":"商务住宅;住宅区;住宅小区","poiAddress":"红领巾路1-30号附近","poiBounds":"[[119.347119,41.59292],[119.346518,41.593739],[119.3456,41.593384],[119.345131,41.59399],[119.346279,41.594496],[119.346429,41.594476],[119.347865,41.592604],[119.347529,41.592464],[119.347119,41.59292]]","poiPcode":"150000","poiPname":"内蒙古自治区","poiCitycode":"0476","poiCityname":"赤峰市","poiAdcode":"150429","poiAdname":"宁城县","poiRegion":"内蒙古自治区/赤峰市/宁城县"},{"poiId":"B0FFH96OQA","poiLocation":"119.330953,41.589915","poiLng":"119.330953","poiLat":"41.589915","poiName":"青华园","poiType":"商务住宅;住宅区;住宅小区","poiAddress":"长青路41附近","poiBounds":"null","poiPcode":"150000","poiPname":"内蒙古自治区","poiCitycode":"0476","poiCityname":"赤峰市","poiAdcode":"150429","poiAdname":"宁城县","poiRegion":"内蒙古自治区/赤峰市/宁城县"},{"poiId":"B0FFH4VBE7","poiLocation":"119.349455,41.591339","poiLng":"119.349455","poiLat":"41.591339","poiName":"京南小区","poiType":"商务住宅;住宅区;住宅小区","poiAddress":"坤都伦街附近","poiBounds":"null","poiPcode":"150000","poiPname":"内蒙古自治区","poiCitycode":"0476","poiCityname":"赤峰市","poiAdcode":"150429","poiAdname":"宁城县","poiRegion":"内蒙古自治区/赤峰市/宁城县"},{"poiId":"B0FFI8CA10","poiLocation":"119.328736,41.598235","poiLng":"119.328736","poiLat":"41.598235","poiName":"审计小区","poiType":"商务住宅;住宅区;住宅小区","poiAddress":"金融街12-2号附近","poiBounds":"null","poiPcode":"150000","poiPname":"内蒙古自治区","poiCitycode":"0476","poiCityname":"赤峰市","poiAdcode":"150429","poiAdname":"宁城县","poiRegion":"内蒙古自治区/赤峰市/宁城县"},{"poiId":"B01DC16HO0","poiLocation":"119.313758,41.599063","poiLng":"119.313758","poiLat":"41.599063","poiName":"泰和家园A区","poiType":"商务住宅;住宅区;住宅小区","poiAddress":"哈河大街与园林路交叉口东100米","poiBounds":"null","poiPcode":"150000","poiPname":"内蒙古自治区","poiCitycode":"0476","poiCityname":"赤峰市","poiAdcode":"150429","poiAdname":"宁城县","poiRegion":"内蒙古自治区/赤峰市/宁城县"},{"poiId":"B01DC0JBBB","poiLocation":"119.335284,41.591476","poiLng":"119.335284","poiLat":"41.591476","poiName":"玉龙友谊小区东区","poiType":"商务住宅;住宅区;住宅小区","poiAddress":"友谊路26","poiBounds":"[[119.334751,41.591567],[119.335126,41.591098],[119.335193,41.591096],[119.335824,41.591405],[119.335416,41.591868],[119.334751,41.591567]]","poiPcode":"150000","poiPname":"内蒙古自治区","poiCitycode":"0476","poiCityname":"赤峰市","poiAdcode":"150429","poiAdname":"宁城县","poiRegion":"内蒙古自治区/赤峰市/宁城县"},{"poiId":"B01DC15X2S","poiLocation":"119.334082,41.590905","poiLng":"119.334082","poiLat":"41.590905","poiName":"友谊小区","poiType":"商务住宅;住宅区;住宅小区","poiAddress":"友谊路21-5号附近","poiBounds":"null","poiPcode":"150000","poiPname":"内蒙古自治区","poiCitycode":"0476","poiCityname":"赤峰市","poiAdcode":"150429","poiAdname":"宁城县","poiRegion":"内蒙古自治区/赤峰市/宁城县"},{"poiId":"B01DC0I5JZ","poiLocation":"119.350555,41.604507","poiLng":"119.350555","poiLat":"41.604507","poiName":"滨河小区(滨河路)","poiType":"商务住宅;住宅区;住宅小区","poiAddress":"北环路与滨河路交叉口东100米","poiBounds":"null","poiPcode":"150000","poiPname":"内蒙古自治区","poiCitycode":"0476","poiCityname":"赤峰市","poiAdcode":"150429","poiAdname":"宁城县","poiRegion":"内蒙古自治区/赤峰市/宁城县"},{"poiId":"B01DC0JAGQ","poiLocation":"119.333926,41.591725","poiLng":"119.333926","poiLat":"41.591725","poiName":"玉龙友谊小区西区","poiType":"商务住宅;住宅区;住宅小区","poiAddress":"友谊路电力宾馆南路","poiBounds":"null","poiPcode":"150000","poiPname":"内蒙古自治区","poiCitycode":"0476","poiCityname":"赤峰市","poiAdcode":"150429","poiAdname":"宁城县","poiRegion":"内蒙古自治区/赤峰市/宁城县"},{"poiId":"B0FFJNOVSV","poiLocation":"119.312198,41.602334","poiLng":"119.312198","poiLat":"41.602334","poiName":"吉安家园","poiType":"商务住宅;住宅区;住宅小区","poiAddress":"园林路东150米","poiBounds":"null","poiPcode":"150000","poiPname":"内蒙古自治区","poiCitycode":"0476","poiCityname":"赤峰市","poiAdcode":"150429","poiAdname":"宁城县","poiRegion":"内蒙古自治区/赤峰市/宁城县"},{"poiId":"B01DC0I5FC","poiLocation":"119.331856,41.590387","poiLng":"119.331856","poiLat":"41.590387","poiName":"长青玉龙小区","poiType":"商务住宅;住宅区;住宅小区","poiAddress":"昌盛街与长青路交叉口北150米","poiBounds":"null","poiPcode":"150000","poiPname":"内蒙古自治区","poiCitycode":"0476","poiCityname":"赤峰市","poiAdcode":"150429","poiAdname":"宁城县","poiRegion":"内蒙古自治区/赤峰市/宁城县"},{"poiId":"B01DC0JGFG","poiLocation":"119.336187,41.591948","poiLng":"119.336187","poiLat":"41.591948","poiName":"华鑫花园小区","poiType":"商务住宅;住宅区;住宅小区","poiAddress":"花园街1号","poiBounds":"null","poiPcode":"150000","poiPname":"内蒙古自治区","poiCitycode":"0476","poiCityname":"赤峰市","poiAdcode":"150429","poiAdname":"宁城县","poiRegion":"内蒙古自治区/赤峰市/宁城县"},{"poiId":"B01DC0I4YB","poiLocation":"119.340165,41.598757","poiLng":"119.340165","poiLat":"41.598757","poiName":"鑫虹桥小区","poiType":"商务住宅;住宅区;住宅小区","poiAddress":"天义镇大宁路","poiBounds":"null","poiPcode":"150000","poiPname":"内蒙古自治区","poiCitycode":"0476","poiCityname":"赤峰市","poiAdcode":"150429","poiAdname":"宁城县","poiRegion":"内蒙古自治区/赤峰市/宁城县"},{"poiId":"B01DC0J1GM","poiLocation":"119.263795,41.797131","poiLng":"119.263795","poiLat":"41.797131","poiName":"红远佳苑","poiType":"商务住宅;住宅区;住宅小区","poiAddress":"汐子村(东门)","poiBounds":"null","poiPcode":"150000","poiPname":"内蒙古自治区","poiCitycode":"0476","poiCityname":"赤峰市","poiAdcode":"150429","poiAdname":"宁城县","poiRegion":"内蒙古自治区/赤峰市/宁城县"},{"poiId":"B0FFGZ3G8G","poiLocation":"119.340235,41.600617","poiLng":"119.340235","poiLat":"41.600617","poiName":"幸福佳苑","poiType":"商务住宅;住宅区;住宅小区","poiAddress":"大宁路与天马街交叉口东南100米","poiBounds":"null","poiPcode":"150000","poiPname":"内蒙古自治区","poiCitycode":"0476","poiCityname":"赤峰市","poiAdcode":"150429","poiAdname":"宁城县","poiRegion":"内蒙古自治区/赤峰市/宁城县"},{"poiId":"B0FFG9EDRJ","poiLocation":"119.33431,41.607206","poiLng":"119.33431","poiLat":"41.607206","poiName":"丁香园2期","poiType":"商务住宅;住宅区;住宅小区","poiAddress":"大宁路67-9号附近","poiBounds":"null","poiPcode":"150000","poiPname":"内蒙古自治区","poiCitycode":"0476","poiCityname":"赤峰市","poiAdcode":"150429","poiAdname":"宁城县","poiRegion":"内蒙古自治区/赤峰市/宁城县"},{"poiId":"B0FFG2ZHUY","poiLocation":"119.340888,41.602249","poiLng":"119.340888","poiLat":"41.602249","poiName":"辽京馨都","poiType":"商务住宅;住宅区;住宅小区","poiAddress":"大宁路与天马街交叉口东北200米","poiBounds":"null","poiPcode":"150000","poiPname":"内蒙古自治区","poiCitycode":"0476","poiCityname":"赤峰市","poiAdcode":"150429","poiAdname":"宁城县","poiRegion":"内蒙古自治区/赤峰市/宁城县"},{"poiId":"B0FFHNSLQZ","poiLocation":"119.308082,41.596019","poiLng":"119.308082","poiLat":"41.596019","poiName":"金宇佳苑B区","poiType":"商务住宅;住宅区;住宅小区","poiAddress":"哈河大街南100米","poiBounds":"null","poiPcode":"150000","poiPname":"内蒙古自治区","poiCitycode":"0476","poiCityname":"赤峰市","poiAdcode":"150429","poiAdname":"宁城县","poiRegion":"内蒙古自治区/赤峰市/宁城县"},{"poiId":"B0FFHNSMEE","poiLocation":"119.311827,41.59246","poiLng":"119.311827","poiLat":"41.59246","poiName":"金宇佳苑A区","poiType":"商务住宅;住宅区;住宅小区","poiAddress":"燕京街南150米","poiBounds":"[[119.31005,41.592695],[119.312217,41.593686],[119.312421,41.593546],[119.313609,41.592037],[119.313607,41.591929],[119.312571,41.591712],[119.311351,41.591485],[119.310954,41.591475],[119.31005,41.592695]]","poiPcode":"150000","poiPname":"内蒙古自治区","poiCitycode":"0476","poiCityname":"赤峰市","poiAdcode":"150429","poiAdname":"宁城县","poiRegion":"内蒙古自治区/赤峰市/宁城县"},{"poiId":"B0FFI2WEDL","poiLocation":"119.314446,41.594611","poiLng":"119.314446","poiLat":"41.594611","poiName":"五间房新村1期","poiType":"商务住宅;住宅区;住宅小区","poiAddress":"园林路与燕京街交叉口西南150米","poiBounds":"null","poiPcode":"150000","poiPname":"内蒙古自治区","poiCitycode":"0476","poiCityname":"赤峰市","poiAdcode":"150429","poiAdname":"宁城县","poiRegion":"内蒙古自治区/赤峰市/宁城县"},{"poiId":"B01DC15X2X","poiLocation":"119.330329,41.590534","poiLng":"119.330329","poiLat":"41.590534","poiName":"永兴小区","poiType":"商务住宅;住宅区;住宅小区","poiAddress":"长青路西100米","poiBounds":"null","poiPcode":"150000","poiPname":"内蒙古自治区","poiCitycode":"0476","poiCityname":"赤峰市","poiAdcode":"150429","poiAdname":"宁城县","poiRegion":"内蒙古自治区/赤峰市/宁城县"},{"poiId":"B0FFG0M9L2","poiLocation":"119.330252,41.611424","poiLng":"119.330252","poiLat":"41.611424","poiName":"运盛华城B区","poiType":"商务住宅;住宅区;住宅小区","poiAddress":"运盛华城B区(宁城高级中学西南)","poiBounds":"null","poiPcode":"150000","poiPname":"内蒙古自治区","poiCitycode":"0476","poiCityname":"赤峰市","poiAdcode":"150429","poiAdname":"宁城县","poiRegion":"内蒙古自治区/赤峰市/宁城县"},{"poiId":"B0FFG0I4OX","poiLocation":"119.334724,41.611229","poiLng":"119.334724","poiLat":"41.611229","poiName":"盛世凯旋公馆(建设中)","poiType":"商务住宅;住宅区;住宅小区","poiAddress":"热水街南100米","poiBounds":"null","poiPcode":"150000","poiPname":"内蒙古自治区","poiCitycode":"0476","poiCityname":"赤峰市","poiAdcode":"150429","poiAdname":"宁城县","poiRegion":"内蒙古自治区/赤峰市/宁城县"},{"poiId":"B0FFG0PGD2","poiLocation":"119.322559,41.590835","poiLng":"119.322559","poiLat":"41.590835","poiName":"金龙4期","poiType":"商务住宅;住宅区;住宅小区","poiAddress":"契丹街北50米","poiBounds":"[[119.321854,41.591152],[119.323131,41.591222],[119.323149,41.591216],[119.323187,41.59057],[119.322176,41.590355],[119.32184,41.59113],[119.321854,41.591152]]","poiPcode":"150000","poiPname":"内蒙古自治区","poiCitycode":"0476","poiCityname":"赤峰市","poiAdcode":"150429","poiAdname":"宁城县","poiRegion":"内蒙古自治区/赤峰市/宁城县"},{"poiId":"B0FFKPKQIF","poiLocation":"119.346340,41.590640","poiLng":"119.346340","poiLat":"41.590640","poiName":"宁城县烟草公司金叶小区","poiType":"商务住宅;住宅区;住宅小区","poiAddress":"天义镇大宁路","poiBounds":"null","poiPcode":"150000","poiPname":"内蒙古自治区","poiCitycode":"0476","poiCityname":"赤峰市","poiAdcode":"150429","poiAdname":"宁城县","poiRegion":"内蒙古自治区/赤峰市/宁城县"},{"poiId":"B01DC0JJ43","poiLocation":"119.330044,41.592406","poiLng":"119.330044","poiLat":"41.592406","poiName":"畅达小区","poiType":"商务住宅;住宅区;住宅小区","poiAddress":"兴隆街与长青路交叉口东150米","poiBounds":"null","poiPcode":"150000","poiPname":"内蒙古自治区","poiCitycode":"0476","poiCityname":"赤峰市","poiAdcode":"150429","poiAdname":"宁城县","poiRegion":"内蒙古自治区/赤峰市/宁城县"},{"poiId":"B01DC0I5H8","poiLocation":"119.334433,41.594611","poiLng":"119.334433","poiLat":"41.594611","poiName":"长明小区","poiType":"商务住宅;住宅区;住宅小区","poiAddress":"兴隆街与契丹街交叉口西南150米","poiBounds":"[[119.33308,41.594536],[119.333325,41.594178],[119.333088,41.594065],[119.333532,41.593452],[119.334865,41.594067],[119.334637,41.594346],[119.33604,41.594988],[119.335576,41.595656],[119.33527,41.595526],[119.3352,41.59563],[119.335157,41.595624],[119.33308,41.594536]]","poiPcode":"150000","poiPname":"内蒙古自治区","poiCitycode":"0476","poiCityname":"赤峰市","poiAdcode":"150429","poiAdname":"宁城县","poiRegion":"内蒙古自治区/赤峰市/宁城县"},{"poiId":"B0FFGCCQM0","poiLocation":"119.343455,41.600986","poiLng":"119.343455","poiLat":"41.600986","poiName":"盛世中京公馆","poiType":"商务住宅;住宅区;住宅小区","poiAddress":"契丹街7-3","poiBounds":"[[119.342957,41.599559],[119.345545,41.600695],[119.344153,41.602369],[119.343762,41.602241],[119.342362,41.601732],[119.341348,41.601347],[119.341742,41.600837],[119.341761,41.600733],[119.341962,41.600469],[119.342104,41.600535],[119.342878,41.59956],[119.342957,41.599559]]","poiPcode":"150000","poiPname":"内蒙古自治区","poiCitycode":"0476","poiCityname":"赤峰市","poiAdcode":"150429","poiAdname":"宁城县","poiRegion":"内蒙古自治区/赤峰市/宁城县"},{"poiId":"B0FFFQ5N40","poiLocation":"119.32259,41.596664","poiLng":"119.32259","poiLat":"41.596664","poiName":"金宇城C区","poiType":"商务住宅;住宅区;住宅小区","poiAddress":"长青路65-9","poiBounds":"[[119.321131,41.59562],[119.321194,41.595597],[119.321257,41.595611],[119.324575,41.597057],[119.32403,41.597743],[119.320638,41.596311],[119.321131,41.59562]]","poiPcode":"150000","poiPname":"内蒙古自治区","poiCitycode":"0476","poiCityname":"赤峰市","poiAdcode":"150429","poiAdname":"宁城县","poiRegion":"内蒙古自治区/赤峰市/宁城县"},{"poiId":"B0FFGYZPQ6","poiLocation":"119.350577,41.60184","poiLng":"119.350577","poiLat":"41.60184","poiName":"邮电住宅小区","poiType":"商务住宅;住宅区;住宅小区","poiAddress":"中京街与滨河路交叉口西北150米","poiBounds":"[[119.349698,41.601731],[119.349831,41.601791],[119.349538,41.602245],[119.350791,41.602742],[119.351542,41.601515],[119.351555,41.601398],[119.351523,41.601302],[119.351298,41.60117],[119.350874,41.601005],[119.350616,41.601343],[119.350132,41.601141],[119.349698,41.601731]]","poiPcode":"150000","poiPname":"内蒙古自治区","poiCitycode":"0476","poiCityname":"赤峰市","poiAdcode":"150429","poiAdname":"宁城县","poiRegion":"内蒙古自治区/赤峰市/宁城县"},{"poiId":"B0FFHOG80A","poiLocation":"119.338196,41.598889","poiLng":"119.338196","poiLat":"41.598889","poiName":"中城小区","poiType":"商务住宅;住宅区;住宅小区","poiAddress":"高桥路18-13号附近","poiBounds":"null","poiPcode":"150000","poiPname":"内蒙古自治区","poiCitycode":"0476","poiCityname":"赤峰市","poiAdcode":"150429","poiAdname":"宁城县","poiRegion":"内蒙古自治区/赤峰市/宁城县"},{"poiId":"B0FFH1TRLE","poiLocation":"119.328382,41.597637","poiLng":"119.328382","poiLat":"41.597637","poiName":"农行商住楼","poiType":"商务住宅;住宅区;住宅小区","poiAddress":"天义镇金融街金宇城A区北50米","poiBounds":"null","poiPcode":"150000","poiPname":"内蒙古自治区","poiCitycode":"0476","poiCityname":"赤峰市","poiAdcode":"150429","poiAdname":"宁城县","poiRegion":"内蒙古自治区/赤峰市/宁城县"},{"poiId":"B0FFH1J1K3","poiLocation":"119.334867,41.591463","poiLng":"119.334867","poiLat":"41.591463","poiName":"花园社区","poiType":"商务住宅;住宅区;住宅小区","poiAddress":"友谊路与昌盛街交叉口西北100米","poiBounds":"null","poiPcode":"150000","poiPname":"内蒙古自治区","poiCitycode":"0476","poiCityname":"赤峰市","poiAdcode":"150429","poiAdname":"宁城县","poiRegion":"内蒙古自治区/赤峰市/宁城县"},{"poiId":"B0FFGTRV6Y","poiLocation":"119.306707,41.599127","poiLng":"119.306707","poiLat":"41.599127","poiName":"新宁家园","poiType":"商务住宅;住宅区;住宅小区","poiAddress":"哈河大街","poiBounds":"[[119.304883,41.599151],[119.307525,41.600382],[119.308025,41.599744],[119.308538,41.599108],[119.305885,41.59787],[119.304883,41.599151]]","poiPcode":"150000","poiPname":"内蒙古自治区","poiCitycode":"0476","poiCityname":"赤峰市","poiAdcode":"150429","poiAdname":"宁城县","poiRegion":"内蒙古自治区/赤峰市/宁城县"},{"poiId":"B01DC16HO2","poiLocation":"119.314468,41.602168","poiLng":"119.314468","poiLat":"41.602168","poiName":"安达·新世纪","poiType":"商务住宅;住宅区;住宅小区","poiAddress":"迎宾路西150米","poiBounds":"[[119.315962,41.601363],[119.315261,41.602284],[119.314632,41.603085],[119.314943,41.603228],[119.314726,41.603494],[119.314681,41.603518],[119.314555,41.60353],[119.312937,41.60284],[119.314613,41.600807],[119.315962,41.601363]]","poiPcode":"150000","poiPname":"内蒙古自治区","poiCitycode":"0476","poiCityname":"赤峰市","poiAdcode":"150429","poiAdname":"宁城县","poiRegion":"内蒙古自治区/赤峰市/宁城县"},{"poiId":"B01DC16HNV","poiLocation":"119.316395,41.598101","poiLng":"119.316395","poiLat":"41.598101","poiName":"泰和家园(园林路)","poiType":"商务住宅;住宅区;住宅小区","poiAddress":"迎宾路中国邮政储蓄银行西北侧80米","poiBounds":"[[119.3134,41.599032],[119.313303,41.598948],[119.313282,41.598868],[119.314559,41.597267],[119.315707,41.595718],[119.315791,41.595667],[119.315922,41.595658],[119.319355,41.597173],[119.319446,41.597242],[119.319467,41.597307],[119.319446,41.597395],[119.319398,41.597483],[119.317026,41.600514],[119.31696,41.600539],[119.316873,41.600536],[119.3134,41.599032]]","poiPcode":"150000","poiPname":"内蒙古自治区","poiCitycode":"0476","poiCityname":"赤峰市","poiAdcode":"150429","poiAdname":"宁城县","poiRegion":"内蒙古自治区/赤峰市/宁城县"},{"poiId":"B0FFF62WOI","poiLocation":"119.33767,41.601481","poiLng":"119.33767","poiLat":"41.601481","poiName":"远达小区","poiType":"商务住宅;住宅区;住宅小区","poiAddress":"大宁路附近","poiBounds":"[[119.336411,41.601529],[119.338336,41.602267],[119.338899,41.601493],[119.338893,41.601456],[119.337068,41.600676],[119.336411,41.601529]]","poiPcode":"150000","poiPname":"内蒙古自治区","poiCitycode":"0476","poiCityname":"赤峰市","poiAdcode":"150429","poiAdname":"宁城县","poiRegion":"内蒙古自治区/赤峰市/宁城县"},{"poiId":"B01DC16HMX","poiLocation":"119.334891,41.587676","poiLng":"119.334891","poiLat":"41.587676","poiName":"博林苑","poiType":"商务住宅;住宅区;住宅小区","poiAddress":"长青路东150米","poiBounds":"[[119.335306,41.588952],[119.334858,41.588711],[119.333597,41.588047],[119.335222,41.58619],[119.335823,41.586443],[119.33528,41.587075],[119.335741,41.587295],[119.335308,41.587807],[119.335471,41.587892],[119.335283,41.588091],[119.335881,41.588411],[119.335411,41.588908],[119.335306,41.588952]]","poiPcode":"150000","poiPname":"内蒙古自治区","poiCitycode":"0476","poiCityname":"赤峰市","poiAdcode":"150429","poiAdname":"宁城县","poiRegion":"内蒙古自治区/赤峰市/宁城县"},{"poiId":"B0FFFZDHAM","poiLocation":"119.330227,41.611631","poiLng":"119.330227","poiLat":"41.611631","poiName":"运盛华城","poiType":"商务住宅;住宅区;住宅小区","poiAddress":"大宁路77","poiBounds":"[[119.32912,41.611543],[119.329745,41.61183],[119.329364,41.612363],[119.330305,41.612752],[119.331421,41.611355],[119.331381,41.611258],[119.329881,41.610587],[119.32912,41.611543]]","poiPcode":"150000","poiPname":"内蒙古自治区","poiCitycode":"0476","poiCityname":"赤峰市","poiAdcode":"150429","poiAdname":"宁城县","poiRegion":"内蒙古自治区/赤峰市/宁城县"},{"poiId":"B0FFGIP8ET","poiLocation":"119.332689,41.590928","poiLng":"119.332689","poiLat":"41.590928","poiName":"金宇花园","poiType":"商务住宅;住宅区;住宅小区","poiAddress":"昌盛街附近","poiBounds":"[[119.33165,41.591558],[119.331907,41.591254],[119.331869,41.591232],[119.332394,41.590583],[119.332988,41.589941],[119.333738,41.590295],[119.333168,41.591018],[119.332449,41.591918],[119.33165,41.591558]]","poiPcode":"150000","poiPname":"内蒙古自治区","poiCitycode":"0476","poiCityname":"赤峰市","poiAdcode":"150429","poiAdname":"宁城县","poiRegion":"内蒙古自治区/赤峰市/宁城县"},{"poiId":"B0FFGKL943","poiLocation":"119.351508,41.578132","poiLng":"119.351508","poiLat":"41.578132","poiName":"祥和家园","poiType":"商务住宅;住宅区;住宅小区","poiAddress":"赛飞亚路东50米","poiBounds":"null","poiPcode":"150000","poiPname":"内蒙古自治区","poiCitycode":"0476","poiCityname":"赤峰市","poiAdcode":"150429","poiAdname":"宁城县","poiRegion":"内蒙古自治区/赤峰市/宁城县"},{"poiId":"B0FFGJZCQU","poiLocation":"118.749194,41.509534","poiLng":"118.749194","poiLat":"41.509534","poiName":"水岸嘉园","poiType":"商务住宅;住宅区;住宅小区","poiAddress":"八里罕镇","poiBounds":"[[118.753287,41.508487],[118.75318,41.508266],[118.74729,41.510077],[118.747365,41.510306],[118.753287,41.508487]]","poiPcode":"150000","poiPname":"内蒙古自治区","poiCitycode":"0476","poiCityname":"赤峰市","poiAdcode":"150429","poiAdname":"宁城县","poiRegion":"内蒙古自治区/赤峰市/宁城县"},{"poiId":"B0FFG0DHQJ","poiLocation":"119.129768,41.595935","poiLng":"119.129768","poiLat":"41.595935","poiName":"世纪家园","poiType":"商务住宅;住宅区;住宅小区","poiAddress":"306国道南50米","poiBounds":"null","poiPcode":"150000","poiPname":"内蒙古自治区","poiCitycode":"0476","poiCityname":"赤峰市","poiAdcode":"150429","poiAdname":"宁城县","poiRegion":"内蒙古自治区/赤峰市/宁城县"},{"poiId":"B0FFG0DOV7","poiLocation":"119.331088,41.613001","poiLng":"119.331088","poiLat":"41.613001","poiName":"学府花园","poiType":"商务住宅;住宅区;住宅小区","poiAddress":"大宁路与热水街交叉口东北100米","poiBounds":"[[119.330368,41.614592],[119.32959,41.614207],[119.330486,41.61307],[119.331253,41.612123],[119.331711,41.611489],[119.331773,41.611461],[119.331819,41.611451],[119.332602,41.611778],[119.330368,41.614592]]","poiPcode":"150000","poiPname":"内蒙古自治区","poiCitycode":"0476","poiCityname":"赤峰市","poiAdcode":"150429","poiAdname":"宁城县","poiRegion":"内蒙古自治区/赤峰市/宁城县"},{"poiId":"B01DC0JAGY","poiLocation":"119.336583,41.590468","poiLng":"119.336583","poiLat":"41.590468","poiName":"和谐家园(昌盛街)","poiType":"商务住宅;住宅区;住宅小区","poiAddress":"友谊路22-20号附近","poiBounds":"[[119.336687,41.591546],[119.337875,41.590017],[119.336457,41.589404],[119.3353,41.590902],[119.336687,41.591546]]","poiPcode":"150000","poiPname":"内蒙古自治区","poiCitycode":"0476","poiCityname":"赤峰市","poiAdcode":"150429","poiAdname":"宁城县","poiRegion":"内蒙古自治区/赤峰市/宁城县"},{"poiId":"B01DC0I4Y5","poiLocation":"119.349837,41.600085","poiLng":"119.349837","poiLat":"41.600085","poiName":"东方明珠小区(中京街)","poiType":"商务住宅;住宅区;住宅小区","poiAddress":"天义镇中京街","poiBounds":"[[119.351437,41.601003],[119.351494,41.601],[119.351701,41.600704],[119.348191,41.599142],[119.348046,41.599374],[119.348076,41.599469],[119.348148,41.599555],[119.351437,41.601003]]","poiPcode":"150000","poiPname":"内蒙古自治区","poiCitycode":"0476","poiCityname":"赤峰市","poiAdcode":"150429","poiAdname":"宁城县","poiRegion":"内蒙古自治区/赤峰市/宁城县"},{"poiId":"B01DC0I57W","poiLocation":"119.334304,41.599968","poiLng":"119.334304","poiLat":"41.599968","poiName":"恒业阳光四季小区","poiType":"商务住宅;住宅区;住宅小区","poiAddress":"天义镇天南街道","poiBounds":"[[119.332895,41.601251],[119.333614,41.601594],[119.333663,41.60161],[119.334017,41.601269],[119.334794,41.601588],[119.334966,41.601402],[119.334768,41.601309],[119.334768,41.601283],[119.335714,41.600078],[119.334392,41.59947],[119.33385,41.600162],[119.334671,41.600511],[119.334451,41.600802],[119.333518,41.600465],[119.332895,41.601251]]","poiPcode":"150000","poiPname":"内蒙古自治区","poiCitycode":"0476","poiCityname":"赤峰市","poiAdcode":"150429","poiAdname":"宁城县","poiRegion":"内蒙古自治区/赤峰市/宁城县"},{"poiId":"B01DC0I5FI","poiLocation":"119.330884,41.591614","poiLng":"119.330884","poiLat":"41.591614","poiName":"金龙花园(长青路)","poiType":"商务住宅;住宅区;住宅小区","poiAddress":"天义镇兴隆街金龙花园","poiBounds":"[[119.33093,41.592054],[119.330347,41.591785],[119.330838,41.591173],[119.33142,41.591446],[119.33093,41.592054]]","poiPcode":"150000","poiPname":"内蒙古自治区","poiCitycode":"0476","poiCityname":"赤峰市","poiAdcode":"150429","poiAdname":"宁城县","poiRegion":"内蒙古自治区/赤峰市/宁城县"},{"poiId":"B01DC0I585","poiLocation":"119.345268,41.60184","poiLng":"119.345268","poiLat":"41.60184","poiName":"锦绣花园(建设路)","poiType":"商务住宅;住宅区;住宅小区","poiAddress":"天义镇建设路","poiBounds":"[[119.344173,41.602695],[119.344347,41.602465],[119.344213,41.60241],[119.34454,41.601979],[119.344975,41.601404],[119.345586,41.600672],[119.346359,41.601033],[119.346386,41.601083],[119.346386,41.601137],[119.345889,41.601815],[119.34538,41.602509],[119.344994,41.602988],[119.344173,41.602695]]","poiPcode":"150000","poiPname":"内蒙古自治区","poiCitycode":"0476","poiCityname":"赤峰市","poiAdcode":"150429","poiAdname":"宁城县","poiRegion":"内蒙古自治区/赤峰市/宁城县"},{"poiId":"B01DC0I5JU","poiLocation":"119.333363,41.591851","poiLng":"119.333363","poiLat":"41.591851","poiName":"农电小区(友谊路)","poiType":"商务住宅;住宅区;住宅小区","poiAddress":"天义镇","poiBounds":"[[119.332406,41.591982],[119.333028,41.591198],[119.334311,41.591733],[119.333723,41.592494],[119.332406,41.591982]]","poiPcode":"150000","poiPname":"内蒙古自治区","poiCitycode":"0476","poiCityname":"赤峰市","poiAdcode":"150429","poiAdname":"宁城县","poiRegion":"内蒙古自治区/赤峰市/宁城县"},{"poiId":"B01DC0I50K","poiLocation":"119.339491,41.602379","poiLng":"119.339491","poiLat":"41.602379","poiName":"华鑫小区(大宁路)","poiType":"商务住宅;住宅区;住宅小区","poiAddress":"天义镇大宁路","poiBounds":"[[119.338094,41.603123],[119.339368,41.601288],[119.339486,41.601234],[119.339596,41.601232],[119.339706,41.601234],[119.340567,41.601563],[119.340033,41.602551],[119.340588,41.602752],[119.340165,41.603386],[119.339011,41.602975],[119.338724,41.60334],[119.338094,41.603123]]","poiPcode":"150000","poiPname":"内蒙古自治区","poiCitycode":"0476","poiCityname":"赤峰市","poiAdcode":"150429","poiAdname":"宁城县","poiRegion":"内蒙古自治区/赤峰市/宁城县"},{"poiId":"B01DC0I5C7","poiLocation":"119.32904,41.591109","poiLng":"119.32904","poiLat":"41.591109","poiName":"聚鑫佳苑","poiType":"商务住宅;住宅区;住宅小区","poiAddress":"天义镇长青路","poiBounds":"[[119.328258,41.591092],[119.328536,41.591216],[119.329469,41.591661],[119.329719,41.591378],[119.329503,41.591281],[119.329712,41.591045],[119.328721,41.590574],[119.328258,41.591092]]","poiPcode":"150000","poiPname":"内蒙古自治区","poiCitycode":"0476","poiCityname":"赤峰市","poiAdcode":"150429","poiAdname":"宁城县","poiRegion":"内蒙古自治区/赤峰市/宁城县"},{"poiId":"B01DC0I57S","poiLocation":"119.329106,41.598372","poiLng":"119.329106","poiLat":"41.598372","poiName":"信用联社小区","poiType":"商务住宅;住宅区;住宅小区","poiAddress":"天义镇金融街联社小区","poiBounds":"null","poiPcode":"150000","poiPname":"内蒙古自治区","poiCitycode":"0476","poiCityname":"赤峰市","poiAdcode":"150429","poiAdname":"宁城县","poiRegion":"内蒙古自治区/赤峰市/宁城县"},{"poiId":"B01DC1594S","poiLocation":"119.336303,41.594322","poiLng":"119.336303","poiLat":"41.594322","poiName":"鼎盛家园","poiType":"商务住宅;住宅区;住宅小区","poiAddress":"打虎石路19号","poiBounds":"[[119.336147,41.595021],[119.334661,41.594343],[119.334887,41.594062],[119.335356,41.594283],[119.335659,41.593813],[119.336284,41.593671],[119.336531,41.593629],[119.337038,41.59383],[119.336147,41.595021]]","poiPcode":"150000","poiPname":"内蒙古自治区","poiCitycode":"0476","poiCityname":"赤峰市","poiAdcode":"150429","poiAdname":"宁城县","poiRegion":"内蒙古自治区/赤峰市/宁城县"},{"poiId":"B01DC0I4Y9","poiLocation":"119.343358,41.592813","poiLng":"119.343358","poiLat":"41.592813","poiName":"大宁花园","poiType":"商务住宅;住宅区;住宅小区","poiAddress":"双拥街南50米","poiBounds":"[[119.341255,41.59226],[119.341426,41.592007],[119.342006,41.59226],[119.34225,41.591969],[119.345176,41.593183],[119.34472,41.593761],[119.341255,41.59226]]","poiPcode":"150000","poiPname":"内蒙古自治区","poiCitycode":"0476","poiCityname":"赤峰市","poiAdcode":"150429","poiAdname":"宁城县","poiRegion":"内蒙古自治区/赤峰市/宁城县"},{"poiId":"B01DC0JDV6","poiLocation":"119.325237,41.590487","poiLng":"119.325237","poiLat":"41.590487","poiName":"天马花园(契丹街)","poiType":"商务住宅;住宅区;住宅小区","poiAddress":"天义镇铁西长青路","poiBounds":"[[119.324122,41.590548],[119.324118,41.590633],[119.324917,41.590885],[119.325612,41.59121],[119.325636,41.591212],[119.32635,41.590282],[119.325456,41.589862],[119.325277,41.590091],[119.325169,41.590141],[119.324555,41.589981],[119.324531,41.590037],[119.324367,41.590003],[119.324122,41.590548]]","poiPcode":"150000","poiPname":"内蒙古自治区","poiCitycode":"0476","poiCityname":"赤峰市","poiAdcode":"150429","poiAdname":"宁城县","poiRegion":"内蒙古自治区/赤峰市/宁城县"},{"poiId":"B01DC0JAHV","poiLocation":"119.338321,41.596227","poiLng":"119.338321","poiLat":"41.596227","poiName":"二轻小区","poiType":"商务住宅;住宅区;住宅小区","poiAddress":"天义镇塞飞亚路","poiBounds":"null","poiPcode":"150000","poiPname":"内蒙古自治区","poiCitycode":"0476","poiCityname":"赤峰市","poiAdcode":"150429","poiAdname":"宁城县","poiRegion":"内蒙古自治区/赤峰市/宁城县"},{"poiId":"B01DC0I5DE","poiLocation":"119.341377,41.597977","poiLng":"119.341377","poiLat":"41.597977","poiName":"华鑫苑","poiType":"商务住宅;住宅区;住宅小区","poiAddress":"天义镇大宁路","poiBounds":"[[119.341342,41.59815],[119.340229,41.597672],[119.339186,41.597201],[119.339119,41.597169],[119.339239,41.597047],[119.340049,41.597408],[119.340719,41.597711],[119.341213,41.597939],[119.341252,41.597892],[119.341495,41.597987],[119.341342,41.59815]]","poiPcode":"150000","poiPname":"内蒙古自治区","poiCitycode":"0476","poiCityname":"赤峰市","poiAdcode":"150429","poiAdname":"宁城县","poiRegion":"内蒙古自治区/赤峰市/宁城县"},{"poiId":"B01DC0I4Y7","poiLocation":"119.349177,41.59358","poiLng":"119.349177","poiLat":"41.59358","poiName":"温馨佳苑(建设路)","poiType":"商务住宅;住宅区;住宅小区","poiAddress":"双拥街","poiBounds":"[[119.347445,41.594879],[119.346667,41.594598],[119.346608,41.594512],[119.346689,41.594329],[119.348132,41.592488],[119.349352,41.592897],[119.349427,41.592809],[119.350117,41.592969],[119.350339,41.592624],[119.351131,41.592933],[119.350997,41.593154],[119.352021,41.593529],[119.351528,41.594159],[119.351026,41.593926],[119.350903,41.594074],[119.35031,41.593864],[119.350141,41.594082],[119.350044,41.594385],[119.350026,41.594395],[119.34987,41.594343],[119.34939,41.594185],[119.348593,41.594082],[119.348537,41.594171],[119.34784,41.593998],[119.347445,41.594879]]","poiPcode":"150000","poiPname":"内蒙古自治区","poiCitycode":"0476","poiCityname":"赤峰市","poiAdcode":"150429","poiAdname":"宁城县","poiRegion":"内蒙古自治区/赤峰市/宁城县"},{"poiId":"B01DC0I4UT","poiLocation":"119.341413,41.599507","poiLng":"119.341413","poiLat":"41.599507","poiName":"契丹小区","poiType":"商务住宅;住宅区;住宅小区","poiAddress":"天义镇大宁路","poiBounds":"[[119.340627,41.599681],[119.341219,41.598947],[119.341294,41.598939],[119.34137,41.598943],[119.34218,41.59932],[119.341595,41.600115],[119.340627,41.599681]]","poiPcode":"150000","poiPname":"内蒙古自治区","poiCitycode":"0476","poiCityname":"赤峰市","poiAdcode":"150429","poiAdname":"宁城县","poiRegion":"内蒙古自治区/赤峰市/宁城县"},{"poiId":"B0FFJRVNMM","poiLocation":"119.338796,41.599965","poiLng":"119.338796","poiLat":"41.599965","poiName":"明达小区","poiType":"商务住宅;住宅区;住宅小区","poiAddress":"大宁路87附近","poiBounds":"[[119.338427,41.599174],[119.338137,41.599503],[119.338156,41.599543],[119.337695,41.600165],[119.33921,41.600763],[119.339309,41.600747],[119.339634,41.600315],[119.339486,41.600245],[119.339607,41.600071],[119.33965,41.599882],[119.339757,41.599669],[119.338507,41.599164],[119.338427,41.599174]]","poiPcode":"150000","poiPname":"内蒙古自治区","poiCitycode":"0476","poiCityname":"赤峰市","poiAdcode":"150429","poiAdname":"宁城县","poiRegion":"内蒙古自治区/赤峰市/宁城县"},{"poiId":"B0FFKD127M","poiLocation":"119.351203,41.578224","poiLng":"119.351203","poiLat":"41.578224","poiName":"祥和家圆3期","poiType":"商务住宅;住宅区;住宅小区","poiAddress":"赛飞亚路东50米","poiBounds":"null","poiPcode":"150000","poiPname":"内蒙古自治区","poiCitycode":"0476","poiCityname":"赤峰市","poiAdcode":"150429","poiAdname":"宁城县","poiRegion":"内蒙古自治区/赤峰市/宁城县"},{"poiId":"B0FFKG2I55","poiLocation":"119.335719,41.600265","poiLng":"119.335719","poiLat":"41.600265","poiName":"华鑫阳光四季小区","poiType":"商务住宅;住宅区;住宅小区","poiAddress":"天马街与高桥路交叉口西北100米","poiBounds":"null","poiPcode":"150000","poiPname":"内蒙古自治区","poiCitycode":"0476","poiCityname":"赤峰市","poiAdcode":"150429","poiAdname":"宁城县","poiRegion":"内蒙古自治区/赤峰市/宁城县"},{"poiId":"B01DC0J6UX","poiLocation":"119.34612,41.591157","poiLng":"119.34612","poiLat":"41.591157","poiName":"紫微家园","poiType":"商务住宅;住宅区;住宅小区","poiAddress":"天义镇大宁路","poiBounds":"[[119.345422,41.591193],[119.346431,41.59162],[119.346804,41.59113],[119.345847,41.590689],[119.345422,41.591193]]","poiPcode":"150000","poiPname":"内蒙古自治区","poiCitycode":"0476","poiCityname":"赤峰市","poiAdcode":"150429","poiAdname":"宁城县","poiRegion":"内蒙古自治区/赤峰市/宁城县"}]