[{"poiId":"B01DC0I4LK","poiLocation":"119.319455,42.305044","poiLng":"119.319455","poiLat":"42.305044","poiName":"元电职工住宅A区","poiType":"商务住宅;住宅区;住宅小区","poiAddress":"垂柳街与电力街交叉口西北150米","poiBounds":"null","poiPcode":"150000","poiPname":"内蒙古自治区","poiCitycode":"0476","poiCityname":"赤峰市","poiAdcode":"150403","poiAdname":"元宝山区","poiRegion":"内蒙古自治区/赤峰市/元宝山区"},{"poiId":"B01DC0I4EU","poiLocation":"119.324120,42.064647","poiLng":"119.324120","poiLat":"42.064647","poiName":"六家煤矿希望小区","poiType":"商务住宅;住宅区;住宅小区","poiAddress":"平庄镇六家","poiBounds":"null","poiPcode":"150000","poiPname":"内蒙古自治区","poiCitycode":"0476","poiCityname":"赤峰市","poiAdcode":"150403","poiAdname":"元宝山区","poiRegion":"内蒙古自治区/赤峰市/元宝山区"},{"poiId":"B0FFHCW3TZ","poiLocation":"119.258849,42.037296","poiLng":"119.258849","poiLat":"42.037296","poiName":"博世园","poiType":"商务住宅;住宅区;住宅小区","poiAddress":"惠宁小区对面","poiBounds":"null","poiPcode":"150000","poiPname":"内蒙古自治区","poiCitycode":"0476","poiCityname":"赤峰市","poiAdcode":"150403","poiAdname":"元宝山区","poiRegion":"内蒙古自治区/赤峰市/元宝山区"},{"poiId":"B0FFHG159N","poiLocation":"119.294131,42.307667","poiLng":"119.294131","poiLat":"42.307667","poiName":"兴元小区","poiType":"商务住宅;住宅区;住宅小区","poiAddress":"赤元线","poiBounds":"null","poiPcode":"150000","poiPname":"内蒙古自治区","poiCitycode":"0476","poiCityname":"赤峰市","poiAdcode":"150403","poiAdname":"元宝山区","poiRegion":"内蒙古自治区/赤峰市/元宝山区"},{"poiId":"B0FFHE7TKU","poiLocation":"119.317675,42.298674","poiLng":"119.317675","poiLat":"42.298674","poiName":"宝马·尚城","poiType":"商务住宅;住宅区;住宅小区","poiAddress":"丁香街与国槐街交叉口东北150米","poiBounds":"null","poiPcode":"150000","poiPname":"内蒙古自治区","poiCitycode":"0476","poiCityname":"赤峰市","poiAdcode":"150403","poiAdname":"元宝山区","poiRegion":"内蒙古自治区/赤峰市/元宝山区"},{"poiId":"B0FFHER2KU","poiLocation":"119.274610,42.033948","poiLng":"119.274610","poiLat":"42.033948","poiName":"阳光社区","poiType":"商务住宅;住宅区;住宅小区","poiAddress":"泰山路东200米","poiBounds":"null","poiPcode":"150000","poiPname":"内蒙古自治区","poiCitycode":"0476","poiCityname":"赤峰市","poiAdcode":"150403","poiAdname":"元宝山区","poiRegion":"内蒙古自治区/赤峰市/元宝山区"},{"poiId":"B0FFI2RQU2","poiLocation":"119.309965,42.053563","poiLng":"119.309965","poiLat":"42.053563","poiName":"宝山国际","poiType":"商务住宅;住宅区;住宅小区","poiAddress":"平庄镇内环北路平庄中央商业广场","poiBounds":"null","poiPcode":"150000","poiPname":"内蒙古自治区","poiCitycode":"0476","poiCityname":"赤峰市","poiAdcode":"150403","poiAdname":"元宝山区","poiRegion":"内蒙古自治区/赤峰市/元宝山区"},{"poiId":"B01DC0JGPS","poiLocation":"119.269215,42.035622","poiLng":"119.269215","poiLat":"42.035622","poiName":"紫辰花园","poiType":"商务住宅;住宅区;住宅小区","poiAddress":"平庄新城","poiBounds":"null","poiPcode":"150000","poiPname":"内蒙古自治区","poiCitycode":"0476","poiCityname":"赤峰市","poiAdcode":"150403","poiAdname":"元宝山区","poiRegion":"内蒙古自治区/赤峰市/元宝山区"},{"poiId":"B01DC0JE2T","poiLocation":"119.287336,42.041827","poiLng":"119.287336","poiLat":"42.041827","poiName":"五洲小区(天山路)","poiType":"商务住宅;住宅区;住宅小区","poiAddress":"平庄天山路中段路东附近","poiBounds":"null","poiPcode":"150000","poiPname":"内蒙古自治区","poiCitycode":"0476","poiCityname":"赤峰市","poiAdcode":"150403","poiAdname":"元宝山区","poiRegion":"内蒙古自治区/赤峰市/元宝山区"},{"poiId":"B0FFHOCX6X","poiLocation":"119.265053,42.048988","poiLng":"119.265053","poiLat":"42.048988","poiName":"新景花园","poiType":"商务住宅;住宅区;住宅小区","poiAddress":"内环西路附近","poiBounds":"null","poiPcode":"150000","poiPname":"内蒙古自治区","poiCitycode":"0476","poiCityname":"赤峰市","poiAdcode":"150403","poiAdname":"元宝山区","poiRegion":"内蒙古自治区/赤峰市/元宝山区"},{"poiId":"B01DC15VTP","poiLocation":"119.275020,42.039163","poiLng":"119.275020","poiLat":"42.039163","poiName":"如意家园","poiType":"商务住宅;住宅区;住宅小区","poiAddress":"平庄镇人川大药房","poiBounds":"null","poiPcode":"150000","poiPname":"内蒙古自治区","poiCitycode":"0476","poiCityname":"赤峰市","poiAdcode":"150403","poiAdname":"元宝山区","poiRegion":"内蒙古自治区/赤峰市/元宝山区"},{"poiId":"B01DC0I4E8","poiLocation":"119.325822,42.314716","poiLng":"119.325822","poiLat":"42.314716","poiName":"建昌营住宅小区","poiType":"商务住宅;住宅区;住宅小区","poiAddress":"元宝山镇建昌营村","poiBounds":"null","poiPcode":"150000","poiPname":"内蒙古自治区","poiCitycode":"0476","poiCityname":"赤峰市","poiAdcode":"150403","poiAdname":"元宝山区","poiRegion":"内蒙古自治区/赤峰市/元宝山区"},{"poiId":"B0FFG0LHXD","poiLocation":"119.262966,42.042565","poiLng":"119.262966","poiLat":"42.042565","poiName":"新天地","poiType":"商务住宅;住宅区;住宅小区","poiAddress":"平庄城区街道","poiBounds":"null","poiPcode":"150000","poiPname":"内蒙古自治区","poiCitycode":"0476","poiCityname":"赤峰市","poiAdcode":"150403","poiAdname":"元宝山区","poiRegion":"内蒙古自治区/赤峰市/元宝山区"},{"poiId":"B01DC0I69F","poiLocation":"119.261631,42.064853","poiLng":"119.261631","poiLat":"42.064853","poiName":"旭东小区","poiType":"商务住宅;住宅区;住宅小区","poiAddress":"平庄镇","poiBounds":"null","poiPcode":"150000","poiPname":"内蒙古自治区","poiCitycode":"0476","poiCityname":"赤峰市","poiAdcode":"150403","poiAdname":"元宝山区","poiRegion":"内蒙古自治区/赤峰市/元宝山区"},{"poiId":"B01DC0I4ED","poiLocation":"119.315945,42.295528","poiLng":"119.315945","poiLat":"42.295528","poiName":"英金小区(国槐街)","poiType":"商务住宅;住宅区;住宅小区","poiAddress":"国槐街南100米","poiBounds":"null","poiPcode":"150000","poiPname":"内蒙古自治区","poiCitycode":"0476","poiCityname":"赤峰市","poiAdcode":"150403","poiAdname":"元宝山区","poiRegion":"内蒙古自治区/赤峰市/元宝山区"},{"poiId":"B01DC0I4LI","poiLocation":"119.321400,42.302100","poiLng":"119.321400","poiLat":"42.302100","poiName":"元电职工住宅C区","poiType":"商务住宅;住宅区;住宅小区","poiAddress":"光明街与白杨路交叉口东南100米","poiBounds":"null","poiPcode":"150000","poiPname":"内蒙古自治区","poiCitycode":"0476","poiCityname":"赤峰市","poiAdcode":"150403","poiAdname":"元宝山区","poiRegion":"内蒙古自治区/赤峰市/元宝山区"},{"poiId":"B0FFG9FKAY","poiLocation":"119.29474,42.052474","poiLng":"119.29474","poiLat":"42.052474","poiName":"怡景园小区","poiType":"商务住宅;住宅区;住宅小区","poiAddress":"内环北路","poiBounds":"null","poiPcode":"150000","poiPname":"内蒙古自治区","poiCitycode":"0476","poiCityname":"赤峰市","poiAdcode":"150403","poiAdname":"元宝山区","poiRegion":"内蒙古自治区/赤峰市/元宝山区"},{"poiId":"B0FFG9ZPY3","poiLocation":"119.287973,42.033074","poiLng":"119.287973","poiLat":"42.033074","poiName":"吉祥花园","poiType":"商务住宅;住宅区;住宅小区","poiAddress":"天山路与辽河街交叉口南150米","poiBounds":"null","poiPcode":"150000","poiPname":"内蒙古自治区","poiCitycode":"0476","poiCityname":"赤峰市","poiAdcode":"150403","poiAdname":"元宝山区","poiRegion":"内蒙古自治区/赤峰市/元宝山区"},{"poiId":"B0FFFP33MZ","poiLocation":"119.274867,42.032824","poiLng":"119.274867","poiLat":"42.032824","poiName":"阳光花园","poiType":"商务住宅;住宅区;住宅小区","poiAddress":"平庄镇泰山路","poiBounds":"null","poiPcode":"150000","poiPname":"内蒙古自治区","poiCitycode":"0476","poiCityname":"赤峰市","poiAdcode":"150403","poiAdname":"元宝山区","poiRegion":"内蒙古自治区/赤峰市/元宝山区"},{"poiId":"B0FFG0F8K9","poiLocation":"119.264058,42.044706","poiLng":"119.264058","poiLat":"42.044706","poiName":"安达·新世纪","poiType":"商务住宅;住宅区;住宅小区","poiAddress":"内环西路与黄河街交叉口西50米","poiBounds":"null","poiPcode":"150000","poiPname":"内蒙古自治区","poiCitycode":"0476","poiCityname":"赤峰市","poiAdcode":"150403","poiAdname":"元宝山区","poiRegion":"内蒙古自治区/赤峰市/元宝山区"},{"poiId":"B0FFG0HJEI","poiLocation":"119.288841,42.048140","poiLng":"119.288841","poiLat":"42.048140","poiName":"向阳三小区","poiType":"商务住宅;住宅区;住宅小区","poiAddress":"宝山路与洋河街交叉口西北100米","poiBounds":"null","poiPcode":"150000","poiPname":"内蒙古自治区","poiCitycode":"0476","poiCityname":"赤峰市","poiAdcode":"150403","poiAdname":"元宝山区","poiRegion":"内蒙古自治区/赤峰市/元宝山区"},{"poiId":"B0FFG0MQWT","poiLocation":"119.304419,42.042871","poiLng":"119.304419","poiLat":"42.042871","poiName":"嘉禾粮苑","poiType":"商务住宅;住宅区;住宅小区","poiAddress":"哈河街北50米","poiBounds":"null","poiPcode":"150000","poiPname":"内蒙古自治区","poiCitycode":"0476","poiCityname":"赤峰市","poiAdcode":"150403","poiAdname":"元宝山区","poiRegion":"内蒙古自治区/赤峰市/元宝山区"},{"poiId":"B01DC0I4IV","poiLocation":"119.254376,42.039272","poiLng":"119.254376","poiLat":"42.039272","poiName":"惠宁小区","poiType":"商务住宅;住宅区;住宅小区","poiAddress":"平庄镇","poiBounds":"null","poiPcode":"150000","poiPname":"内蒙古自治区","poiCitycode":"0476","poiCityname":"赤峰市","poiAdcode":"150403","poiAdname":"元宝山区","poiRegion":"内蒙古自治区/赤峰市/元宝山区"},{"poiId":"B01DC0J11R","poiLocation":"119.274969,42.035501","poiLng":"119.274969","poiLat":"42.035501","poiName":"王府花园","poiType":"商务住宅;住宅区;住宅小区","poiAddress":"全宁街","poiBounds":"null","poiPcode":"150000","poiPname":"内蒙古自治区","poiCitycode":"0476","poiCityname":"赤峰市","poiAdcode":"150403","poiAdname":"元宝山区","poiRegion":"内蒙古自治区/赤峰市/元宝山区"},{"poiId":"B01DC0JE57","poiLocation":"119.302187,42.041618","poiLng":"119.302187","poiLat":"42.041618","poiName":"东方小区(哈河街)","poiType":"商务住宅;住宅区;住宅小区","poiAddress":"平庄镇哈河街","poiBounds":"null","poiPcode":"150000","poiPname":"内蒙古自治区","poiCitycode":"0476","poiCityname":"赤峰市","poiAdcode":"150403","poiAdname":"元宝山区","poiRegion":"内蒙古自治区/赤峰市/元宝山区"},{"poiId":"B01DC0I6HT","poiLocation":"119.294776,42.040718","poiLng":"119.294776","poiLat":"42.040718","poiName":"银河小区(哈河街)","poiType":"商务住宅;住宅区;住宅小区","poiAddress":"平庄镇银河街","poiBounds":"null","poiPcode":"150000","poiPname":"内蒙古自治区","poiCitycode":"0476","poiCityname":"赤峰市","poiAdcode":"150403","poiAdname":"元宝山区","poiRegion":"内蒙古自治区/赤峰市/元宝山区"},{"poiId":"B01DC0I6F6","poiLocation":"119.287368,42.043013","poiLng":"119.287368","poiLat":"42.043013","poiName":"光明小区(天山路)","poiType":"商务住宅;住宅区;住宅小区","poiAddress":"平庄宝山路","poiBounds":"null","poiPcode":"150000","poiPname":"内蒙古自治区","poiCitycode":"0476","poiCityname":"赤峰市","poiAdcode":"150403","poiAdname":"元宝山区","poiRegion":"内蒙古自治区/赤峰市/元宝山区"},{"poiId":"B01DC0JDA9","poiLocation":"119.28137,42.036674","poiLng":"119.28137","poiLat":"42.036674","poiName":"星海花园","poiType":"商务住宅;住宅区;住宅小区","poiAddress":"平庄镇英河街西段","poiBounds":"null","poiPcode":"150000","poiPname":"内蒙古自治区","poiCitycode":"0476","poiCityname":"赤峰市","poiAdcode":"150403","poiAdname":"元宝山区","poiRegion":"内蒙古自治区/赤峰市/元宝山区"},{"poiId":"B01DC0I4XB","poiLocation":"119.290172,42.033526","poiLng":"119.290172","poiLat":"42.033526","poiName":"星光小区","poiType":"商务住宅;住宅区;住宅小区","poiAddress":"平庄镇","poiBounds":"null","poiPcode":"150000","poiPname":"内蒙古自治区","poiCitycode":"0476","poiCityname":"赤峰市","poiAdcode":"150403","poiAdname":"元宝山区","poiRegion":"内蒙古自治区/赤峰市/元宝山区"},{"poiId":"B01DC0I4RF","poiLocation":"119.288198,42.046236","poiLng":"119.288198","poiLat":"42.046236","poiName":"太阳神小区","poiType":"商务住宅;住宅区;住宅小区","poiAddress":"平庄北环","poiBounds":"null","poiPcode":"150000","poiPname":"内蒙古自治区","poiCitycode":"0476","poiCityname":"赤峰市","poiAdcode":"150403","poiAdname":"元宝山区","poiRegion":"内蒙古自治区/赤峰市/元宝山区"},{"poiId":"B01DC0I6G9","poiLocation":"119.290386,42.036374","poiLng":"119.290386","poiLat":"42.036374","poiName":"旭日小区(宝山路)","poiType":"商务住宅;住宅区;住宅小区","poiAddress":"天上路","poiBounds":"null","poiPcode":"150000","poiPname":"内蒙古自治区","poiCitycode":"0476","poiCityname":"赤峰市","poiAdcode":"150403","poiAdname":"元宝山区","poiRegion":"内蒙古自治区/赤峰市/元宝山区"},{"poiId":"B01DC0JGNZ","poiLocation":"119.284101,42.042896","poiLng":"119.284101","poiLat":"42.042896","poiName":"新兴小区(锦山路)","poiType":"商务住宅;住宅区;住宅小区","poiAddress":"平庄镇锦山路","poiBounds":"null","poiPcode":"150000","poiPname":"内蒙古自治区","poiCitycode":"0476","poiCityname":"赤峰市","poiAdcode":"150403","poiAdname":"元宝山区","poiRegion":"内蒙古自治区/赤峰市/元宝山区"},{"poiId":"B01DC0JKF1","poiLocation":"119.292738,42.051703","poiLng":"119.292738","poiLat":"42.051703","poiName":"新华小区(内环北路)","poiType":"商务住宅;住宅区;住宅小区","poiAddress":"平庄镇北环新华小区内环北路","poiBounds":"null","poiPcode":"150000","poiPname":"内蒙古自治区","poiCitycode":"0476","poiCityname":"赤峰市","poiAdcode":"150403","poiAdname":"元宝山区","poiRegion":"内蒙古自治区/赤峰市/元宝山区"},{"poiId":"B01DC0JJD6","poiLocation":"119.287462,42.0507","poiLng":"119.287462","poiLat":"42.0507","poiName":"向阳四小区","poiType":"商务住宅;住宅区;住宅小区","poiAddress":"平庄镇北环","poiBounds":"null","poiPcode":"150000","poiPname":"内蒙古自治区","poiCitycode":"0476","poiCityname":"赤峰市","poiAdcode":"150403","poiAdname":"元宝山区","poiRegion":"内蒙古自治区/赤峰市/元宝山区"},{"poiId":"B01DC0I6G1","poiLocation":"119.296085,42.049237","poiLng":"119.296085","poiLat":"42.049237","poiName":"幸福家园(内环北路)","poiType":"商务住宅;住宅区;住宅小区","poiAddress":"内环北路与红山路交叉口西南100米","poiBounds":"null","poiPcode":"150000","poiPname":"内蒙古自治区","poiCitycode":"0476","poiCityname":"赤峰市","poiAdcode":"150403","poiAdname":"元宝山区","poiRegion":"内蒙古自治区/赤峰市/元宝山区"},{"poiId":"B0FFFGZTOO","poiLocation":"119.143411,42.280856","poiLng":"119.143411","poiLat":"42.280856","poiName":"清泰园","poiType":"商务住宅;住宅区;住宅小区","poiAddress":"元宝山镇红庙子镇马架子村","poiBounds":"null","poiPcode":"150000","poiPname":"内蒙古自治区","poiCitycode":"0476","poiCityname":"赤峰市","poiAdcode":"150403","poiAdname":"元宝山区","poiRegion":"内蒙古自治区/赤峰市/元宝山区"},{"poiId":"B0FFGD2JV1","poiLocation":"119.310296,42.298254","poiLng":"119.310296","poiLat":"42.298254","poiName":"御金湾","poiType":"商务住宅;住宅区;住宅小区","poiAddress":"国槐街附近","poiBounds":"null","poiPcode":"150000","poiPname":"内蒙古自治区","poiCitycode":"0476","poiCityname":"赤峰市","poiAdcode":"150403","poiAdname":"元宝山区","poiRegion":"内蒙古自治区/赤峰市/元宝山区"},{"poiId":"B0FFGCD0X1","poiLocation":"119.302084,42.299666","poiLng":"119.302084","poiLat":"42.299666","poiName":"盛世馨居","poiType":"商务住宅;住宅区;住宅小区","poiAddress":"兴元路附近","poiBounds":"null","poiPcode":"150000","poiPname":"内蒙古自治区","poiCitycode":"0476","poiCityname":"赤峰市","poiAdcode":"150403","poiAdname":"元宝山区","poiRegion":"内蒙古自治区/赤峰市/元宝山区"},{"poiId":"B0FFGH40JB","poiLocation":"119.298628,42.304182","poiLng":"119.298628","poiLat":"42.304182","poiName":"东方小区","poiType":"商务住宅;住宅区;住宅小区","poiAddress":"兴元路附近","poiBounds":"null","poiPcode":"150000","poiPname":"内蒙古自治区","poiCitycode":"0476","poiCityname":"赤峰市","poiAdcode":"150403","poiAdname":"元宝山区","poiRegion":"内蒙古自治区/赤峰市/元宝山区"},{"poiId":"B0FFGHR9MT","poiLocation":"119.304466,42.304664","poiLng":"119.304466","poiLat":"42.304664","poiName":"宝山小区","poiType":"商务住宅;住宅区;住宅小区","poiAddress":"元平线","poiBounds":"null","poiPcode":"150000","poiPname":"内蒙古自治区","poiCitycode":"0476","poiCityname":"赤峰市","poiAdcode":"150403","poiAdname":"元宝山区","poiRegion":"内蒙古自治区/赤峰市/元宝山区"},{"poiId":"B0FFGG6ZCG","poiLocation":"119.324023,42.299070","poiLng":"119.324023","poiLat":"42.299070","poiName":"军成小区","poiType":"商务住宅;住宅区;住宅小区","poiAddress":"国槐街","poiBounds":"null","poiPcode":"150000","poiPname":"内蒙古自治区","poiCitycode":"0476","poiCityname":"赤峰市","poiAdcode":"150403","poiAdname":"元宝山区","poiRegion":"内蒙古自治区/赤峰市/元宝山区"},{"poiId":"B0FFFJAYZP","poiLocation":"119.270468,42.03314","poiLng":"119.270468","poiLat":"42.03314","poiName":"锦绣花苑","poiType":"商务住宅;住宅区;住宅小区","poiAddress":"平庄镇","poiBounds":"null","poiPcode":"150000","poiPname":"内蒙古自治区","poiCitycode":"0476","poiCityname":"赤峰市","poiAdcode":"150403","poiAdname":"元宝山区","poiRegion":"内蒙古自治区/赤峰市/元宝山区"},{"poiId":"B0FFGZX6AG","poiLocation":"119.279753,42.039201","poiLng":"119.279753","poiLat":"42.039201","poiName":"秀水怡园","poiType":"商务住宅;住宅区;住宅小区","poiAddress":"哈河街附近","poiBounds":"null","poiPcode":"150000","poiPname":"内蒙古自治区","poiCitycode":"0476","poiCityname":"赤峰市","poiAdcode":"150403","poiAdname":"元宝山区","poiRegion":"内蒙古自治区/赤峰市/元宝山区"},{"poiId":"B0FFG0ILC4","poiLocation":"119.314375,42.300312","poiLng":"119.314375","poiLat":"42.300312","poiName":"百合园","poiType":"商务住宅;住宅区;住宅小区","poiAddress":"丁香街与垂柳街交叉口西150米","poiBounds":"null","poiPcode":"150000","poiPname":"内蒙古自治区","poiCitycode":"0476","poiCityname":"赤峰市","poiAdcode":"150403","poiAdname":"元宝山区","poiRegion":"内蒙古自治区/赤峰市/元宝山区"},{"poiId":"B0FFG0S306","poiLocation":"119.29772,42.040398","poiLng":"119.29772","poiLat":"42.040398","poiName":"晨光小区","poiType":"商务住宅;住宅区;住宅小区","poiAddress":"哈河街与红山路交叉口西南200米","poiBounds":"null","poiPcode":"150000","poiPname":"内蒙古自治区","poiCitycode":"0476","poiCityname":"赤峰市","poiAdcode":"150403","poiAdname":"元宝山区","poiRegion":"内蒙古自治区/赤峰市/元宝山区"},{"poiId":"B0FFG0E4LW","poiLocation":"119.292856,42.032174","poiLng":"119.292856","poiLat":"42.032174","poiName":"时代家园","poiType":"商务住宅;住宅区;住宅小区","poiAddress":"古马线与宝山路交叉口东北150米","poiBounds":"null","poiPcode":"150000","poiPname":"内蒙古自治区","poiCitycode":"0476","poiCityname":"赤峰市","poiAdcode":"150403","poiAdname":"元宝山区","poiRegion":"内蒙古自治区/赤峰市/元宝山区"},{"poiId":"B0FFJ55M1H","poiLocation":"119.283602,42.037480","poiLng":"119.283602","poiLat":"42.037480","poiName":"星海小区","poiType":"商务住宅;住宅区;住宅小区","poiAddress":"星海小区(锦山路西50米)","poiBounds":"null","poiPcode":"150000","poiPname":"内蒙古自治区","poiCitycode":"0476","poiCityname":"赤峰市","poiAdcode":"150403","poiAdname":"元宝山区","poiRegion":"内蒙古自治区/赤峰市/元宝山区"},{"poiId":"B0FFG7YJR6","poiLocation":"119.296153,42.303807","poiLng":"119.296153","poiLat":"42.303807","poiName":"兴元路小区","poiType":"商务住宅;住宅区;住宅小区","poiAddress":"兴元路与宝山街交叉口东南150米","poiBounds":"null","poiPcode":"150000","poiPname":"内蒙古自治区","poiCitycode":"0476","poiCityname":"赤峰市","poiAdcode":"150403","poiAdname":"元宝山区","poiRegion":"内蒙古自治区/赤峰市/元宝山区"},{"poiId":"B0FFG8YZMR","poiLocation":"119.263473,42.032326","poiLng":"119.263473","poiLat":"42.032326","poiName":"中天·御龙湾","poiType":"商务住宅;住宅区;住宅小区","poiAddress":"内环西路附近","poiBounds":"null","poiPcode":"150000","poiPname":"内蒙古自治区","poiCitycode":"0476","poiCityname":"赤峰市","poiAdcode":"150403","poiAdname":"元宝山区","poiRegion":"内蒙古自治区/赤峰市/元宝山区"},{"poiId":"B0FFKVZP6W","poiLocation":"119.272567,42.048345","poiLng":"119.272567","poiLat":"42.048345","poiName":"紫玉华府(建设中)","poiType":"商务住宅;住宅区;住宅小区","poiAddress":"内环北路与泰山路交叉口西北50米","poiBounds":"null","poiPcode":"150000","poiPname":"内蒙古自治区","poiCitycode":"0476","poiCityname":"赤峰市","poiAdcode":"150403","poiAdname":"元宝山区","poiRegion":"内蒙古自治区/赤峰市/元宝山区"},{"poiId":"B0FFKG335L","poiLocation":"119.315615,42.062284","poiLng":"119.315615","poiLat":"42.062284","poiName":"古山新苑","poiType":"商务住宅;住宅区;住宅小区","poiAddress":"","poiBounds":"null","poiPcode":"150000","poiPname":"内蒙古自治区","poiCitycode":"0476","poiCityname":"赤峰市","poiAdcode":"150403","poiAdname":"元宝山区","poiRegion":"内蒙古自治区/赤峰市/元宝山区"},{"poiId":"B0FFGY9FJB","poiLocation":"119.361019,42.356272","poiLng":"119.361019","poiLat":"42.356272","poiName":"金河家园","poiType":"商务住宅;住宅区;住宅小区","poiAddress":"元宝山镇","poiBounds":"null","poiPcode":"150000","poiPname":"内蒙古自治区","poiCitycode":"0476","poiCityname":"赤峰市","poiAdcode":"150403","poiAdname":"元宝山区","poiRegion":"内蒙古自治区/赤峰市/元宝山区"},{"poiId":"B0FFGRM4NI","poiLocation":"119.271995,42.045882","poiLng":"119.271995","poiLat":"42.045882","poiName":"宝山仕家","poiType":"商务住宅;住宅区;住宅小区","poiAddress":"泰山路","poiBounds":"null","poiPcode":"150000","poiPname":"内蒙古自治区","poiCitycode":"0476","poiCityname":"赤峰市","poiAdcode":"150403","poiAdname":"元宝山区","poiRegion":"内蒙古自治区/赤峰市/元宝山区"},{"poiId":"B0FFH1IJLS","poiLocation":"119.292552,42.308176","poiLng":"119.292552","poiLat":"42.308176","poiName":"惠山小区","poiType":"商务住宅;住宅区;住宅小区","poiAddress":"赤元线","poiBounds":"null","poiPcode":"150000","poiPname":"内蒙古自治区","poiCitycode":"0476","poiCityname":"赤峰市","poiAdcode":"150403","poiAdname":"元宝山区","poiRegion":"内蒙古自治区/赤峰市/元宝山区"},{"poiId":"B0FFGZFWOZ","poiLocation":"119.247983,42.027710","poiLng":"119.247983","poiLat":"42.027710","poiName":"平庄运输部工村","poiType":"商务住宅;住宅区;住宅小区","poiAddress":"西露天街道","poiBounds":"null","poiPcode":"150000","poiPname":"内蒙古自治区","poiCitycode":"0476","poiCityname":"赤峰市","poiAdcode":"150403","poiAdname":"元宝山区","poiRegion":"内蒙古自治区/赤峰市/元宝山区"},{"poiId":"B0FFGY9J62","poiLocation":"119.299213,42.043870","poiLng":"119.299213","poiLat":"42.043870","poiName":"平庄新楼区","poiType":"商务住宅;住宅区;住宅小区","poiAddress":"矿工街与红山路交叉口东100米","poiBounds":"null","poiPcode":"150000","poiPname":"内蒙古自治区","poiCitycode":"0476","poiCityname":"赤峰市","poiAdcode":"150403","poiAdname":"元宝山区","poiRegion":"内蒙古自治区/赤峰市/元宝山区"},{"poiId":"B0FFH7QJ3O","poiLocation":"119.298649,42.045807","poiLng":"119.298649","poiLat":"42.045807","poiName":"红山路小区","poiType":"商务住宅;住宅区;住宅小区","poiAddress":"红山路东50米","poiBounds":"null","poiPcode":"150000","poiPname":"内蒙古自治区","poiCitycode":"0476","poiCityname":"赤峰市","poiAdcode":"150403","poiAdname":"元宝山区","poiRegion":"内蒙古自治区/赤峰市/元宝山区"},{"poiId":"B0FFH1SVTB","poiLocation":"119.294932,42.309470","poiLng":"119.294932","poiLat":"42.309470","poiName":"菜园楼房小区","poiType":"商务住宅;住宅区;住宅小区","poiAddress":"赤元线","poiBounds":"null","poiPcode":"150000","poiPname":"内蒙古自治区","poiCitycode":"0476","poiCityname":"赤峰市","poiAdcode":"150403","poiAdname":"元宝山区","poiRegion":"内蒙古自治区/赤峰市/元宝山区"},{"poiId":"B0FFH1UKY5","poiLocation":"119.297746,42.309058","poiLng":"119.297746","poiLat":"42.309058","poiName":"鸿利小区","poiType":"商务住宅;住宅区;住宅小区","poiAddress":"赤元线","poiBounds":"null","poiPcode":"150000","poiPname":"内蒙古自治区","poiCitycode":"0476","poiCityname":"赤峰市","poiAdcode":"150403","poiAdname":"元宝山区","poiRegion":"内蒙古自治区/赤峰市/元宝山区"},{"poiId":"B0FFH0XSPX","poiLocation":"119.318166,42.298362","poiLng":"119.318166","poiLat":"42.298362","poiName":"金百合小区","poiType":"商务住宅;住宅区;住宅小区","poiAddress":"云杉路与国槐街交叉口北100米","poiBounds":"null","poiPcode":"150000","poiPname":"内蒙古自治区","poiCitycode":"0476","poiCityname":"赤峰市","poiAdcode":"150403","poiAdname":"元宝山区","poiRegion":"内蒙古自治区/赤峰市/元宝山区"},{"poiId":"B0FFH44SPH","poiLocation":"119.300953,42.300151","poiLng":"119.300953","poiLat":"42.300151","poiName":"元煤露天小区","poiType":"商务住宅;住宅区;住宅小区","poiAddress":"兴元路","poiBounds":"null","poiPcode":"150000","poiPname":"内蒙古自治区","poiCitycode":"0476","poiCityname":"赤峰市","poiAdcode":"150403","poiAdname":"元宝山区","poiRegion":"内蒙古自治区/赤峰市/元宝山区"},{"poiId":"B0FFH04GRE","poiLocation":"119.291396,42.047911","poiLng":"119.291396","poiLat":"42.047911","poiName":"电业家属楼","poiType":"商务住宅;住宅区;住宅小区","poiAddress":"洋河街","poiBounds":"null","poiPcode":"150000","poiPname":"内蒙古自治区","poiCitycode":"0476","poiCityname":"赤峰市","poiAdcode":"150403","poiAdname":"元宝山区","poiRegion":"内蒙古自治区/赤峰市/元宝山区"}]