[{"poiId":"B0FFFGZWOW","poiLocation":"118.672909,43.5412","poiLng":"118.672909","poiLat":"43.5412","poiName":"巴林丽都","poiType":"商务住宅;住宅区;住宅小区","poiAddress":"242县道西50米","poiBounds":"[[118.674503,43.542578],[118.674334,43.542875],[118.672692,43.543447],[118.671436,43.543136],[118.670648,43.542436],[118.670218,43.541717],[118.66965,43.540787],[118.67222,43.539953],[118.672966,43.539655],[118.67366,43.539387],[118.67561,43.538408],[118.675772,43.53843],[118.674811,43.541608],[118.674503,43.542578]]","poiPcode":"150000","poiPname":"内蒙古自治区","poiCitycode":"0476","poiCityname":"赤峰市","poiAdcode":"150423","poiAdname":"巴林右旗","poiRegion":"内蒙古自治区/赤峰市/巴林右旗"},{"poiId":"B01DC0I3VF","poiLocation":"118.682982,43.520443","poiLng":"118.682982","poiLat":"43.520443","poiName":"悦园(南市街)","poiType":"商务住宅;住宅区;住宅小区","poiAddress":"健康街","poiBounds":"[[118.681791,43.520988],[118.682263,43.519468],[118.684274,43.519799],[118.683863,43.520718],[118.683945,43.520742],[118.683605,43.521424],[118.681943,43.521152],[118.681791,43.520988]]","poiPcode":"150000","poiPname":"内蒙古自治区","poiCitycode":"0476","poiCityname":"赤峰市","poiAdcode":"150423","poiAdname":"巴林右旗","poiRegion":"内蒙古自治区/赤峰市/巴林右旗"},{"poiId":"B01DC0I5XJ","poiLocation":"118.677037,43.530889","poiLng":"118.677037","poiLat":"43.530889","poiName":"新世纪小区","poiType":"商务住宅;住宅区;住宅小区","poiAddress":"大板镇索博日嘎街","poiBounds":"[[118.675712,43.532308],[118.677576,43.532617],[118.677638,43.532605],[118.677702,43.53257],[118.677737,43.532541],[118.677775,43.5325],[118.677917,43.532004],[118.676707,43.531792],[118.676686,43.531769],[118.676847,43.5313],[118.678088,43.531495],[118.678118,43.531483],[118.678362,43.530686],[118.678341,43.530653],[118.678303,43.530633],[118.676262,43.530334],[118.675712,43.532308]]","poiPcode":"150000","poiPname":"内蒙古自治区","poiCitycode":"0476","poiCityname":"赤峰市","poiAdcode":"150423","poiAdname":"巴林右旗","poiRegion":"内蒙古自治区/赤峰市/巴林右旗"},{"poiId":"B01DC0JMDS","poiLocation":"118.680608,43.529295","poiLng":"118.680608","poiLat":"43.529295","poiName":"阳光小区(查干沐沦街)","poiType":"商务住宅;住宅区;住宅小区","poiAddress":"查干沐沦街28号","poiBounds":"[[118.680137,43.529707],[118.680947,43.529824],[118.681183,43.528881],[118.680445,43.528751],[118.680362,43.529086],[118.680067,43.529044],[118.680009,43.529262],[118.679965,43.529458],[118.680195,43.529492],[118.680137,43.529707]]","poiPcode":"150000","poiPname":"内蒙古自治区","poiCitycode":"0476","poiCityname":"赤峰市","poiAdcode":"150423","poiAdname":"巴林右旗","poiRegion":"内蒙古自治区/赤峰市/巴林右旗"},{"poiId":"B01DC0JDD6","poiLocation":"118.674532,43.533379","poiLng":"118.674532","poiLat":"43.533379","poiName":"赛罕小区","poiType":"商务住宅;住宅区;住宅小区","poiAddress":"索博日噶街","poiBounds":"[[118.673348,43.534077],[118.676942,43.534621],[118.677049,43.534318],[118.676877,43.534283],[118.677108,43.533385],[118.676378,43.53328],[118.676491,43.532906],[118.672323,43.532159],[118.67221,43.532187],[118.67176,43.533396],[118.671921,43.533435],[118.673482,43.533684],[118.673348,43.534077]]","poiPcode":"150000","poiPname":"内蒙古自治区","poiCitycode":"0476","poiCityname":"赤峰市","poiAdcode":"150423","poiAdname":"巴林右旗","poiRegion":"内蒙古自治区/赤峰市/巴林右旗"},{"poiId":"B01DC1592H","poiLocation":"118.657987,43.529891","poiLng":"118.657987","poiLat":"43.529891","poiName":"税苑小区","poiType":"商务住宅;住宅区;住宅小区","poiAddress":"242县道北50米","poiBounds":"null","poiPcode":"150000","poiPname":"内蒙古自治区","poiCitycode":"0476","poiCityname":"赤峰市","poiAdcode":"150423","poiAdname":"巴林右旗","poiRegion":"内蒙古自治区/赤峰市/巴林右旗"},{"poiId":"B0FFGDHIFW","poiLocation":"118.665055,43.535003","poiLng":"118.665055","poiLat":"43.535003","poiName":"假日蓝湾小区","poiType":"商务住宅;住宅区;住宅小区","poiAddress":"政府环路北50米","poiBounds":"[[118.663617,43.535885],[118.663982,43.534621],[118.665624,43.534882],[118.665742,43.534963],[118.665291,43.53641],[118.664379,43.536235],[118.663617,43.535885]]","poiPcode":"150000","poiPname":"内蒙古自治区","poiCitycode":"0476","poiCityname":"赤峰市","poiAdcode":"150423","poiAdname":"巴林右旗","poiRegion":"内蒙古自治区/赤峰市/巴林右旗"},{"poiId":"B0FFGDH9EC","poiLocation":"118.669467,43.530488","poiLng":"118.669467","poiLat":"43.530488","poiName":"花园小区","poiType":"商务住宅;住宅区;住宅小区","poiAddress":"","poiBounds":"[[118.66704,43.530908],[118.671374,43.531577],[118.671507,43.531131],[118.671366,43.531101],[118.671685,43.529959],[118.668461,43.529454],[118.668349,43.529804],[118.667442,43.52966],[118.66704,43.530908]]","poiPcode":"150000","poiPname":"内蒙古自治区","poiCitycode":"0476","poiCityname":"赤峰市","poiAdcode":"150423","poiAdname":"巴林右旗","poiRegion":"内蒙古自治区/赤峰市/巴林右旗"},{"poiId":"B0FFGDE98C","poiLocation":"118.666616,43.534582","poiLng":"118.666616","poiLat":"43.534582","poiName":"中和祥颐景园","poiType":"商务住宅;住宅区;住宅小区","poiAddress":"政府环路巴林右旗政府东侧","poiBounds":"null","poiPcode":"150000","poiPname":"内蒙古自治区","poiCitycode":"0476","poiCityname":"赤峰市","poiAdcode":"150423","poiAdname":"巴林右旗","poiRegion":"内蒙古自治区/赤峰市/巴林右旗"},{"poiId":"B01DC0J87J","poiLocation":"118.683753,43.530047","poiLng":"118.683753","poiLat":"43.530047","poiName":"天隆小区(荟福路)","poiType":"商务住宅;住宅区;住宅小区","poiAddress":"查干沐浴街与荟福路交叉口东北150米","poiBounds":"[[118.682743,43.5305],[118.684404,43.530778],[118.684441,43.530621],[118.684315,43.529841],[118.684785,43.529869],[118.684882,43.529602],[118.683073,43.529289],[118.682993,43.529517],[118.683419,43.529596],[118.683323,43.529911],[118.683004,43.529872],[118.682974,43.529985],[118.682883,43.529973],[118.682743,43.5305]]","poiPcode":"150000","poiPname":"内蒙古自治区","poiCitycode":"0476","poiCityname":"赤峰市","poiAdcode":"150423","poiAdname":"巴林右旗","poiRegion":"内蒙古自治区/赤峰市/巴林右旗"},{"poiId":"B0FFG0NUMW","poiLocation":"118.689178,43.525611","poiLng":"118.689178","poiLat":"43.525611","poiName":"明珠小区","poiType":"商务住宅;住宅区;住宅小区","poiAddress":"益和诺尔街与阿尔山路交叉口西北150米","poiBounds":"[[118.687936,43.525889],[118.688263,43.524978],[118.690548,43.525391],[118.690334,43.52577],[118.689859,43.526225],[118.687936,43.525889]]","poiPcode":"150000","poiPname":"内蒙古自治区","poiCitycode":"0476","poiCityname":"赤峰市","poiAdcode":"150423","poiAdname":"巴林右旗","poiRegion":"内蒙古自治区/赤峰市/巴林右旗"},{"poiId":"B0FFFH0CSY","poiLocation":"118.673603,43.526040","poiLng":"118.673603","poiLat":"43.526040","poiName":"吉祥家园","poiType":"商务住宅;住宅区;住宅小区","poiAddress":"罕山路","poiBounds":"null","poiPcode":"150000","poiPname":"内蒙古自治区","poiCitycode":"0476","poiCityname":"赤峰市","poiAdcode":"150423","poiAdname":"巴林右旗","poiRegion":"内蒙古自治区/赤峰市/巴林右旗"},{"poiId":"B0FFH1HU93","poiLocation":"118.696524,43.521713","poiLng":"118.696524","poiLat":"43.521713","poiName":"林苑小区","poiType":"商务住宅;住宅区;住宅小区","poiAddress":"阿尔山路东100米","poiBounds":"[[118.695591,43.521519],[118.695446,43.522087],[118.696519,43.522236],[118.696527,43.522203],[118.696991,43.52228],[118.69756,43.521462],[118.697498,43.521367],[118.696419,43.521053],[118.696121,43.521347],[118.69581,43.52164],[118.695591,43.521519]]","poiPcode":"150000","poiPname":"内蒙古自治区","poiCitycode":"0476","poiCityname":"赤峰市","poiAdcode":"150423","poiAdname":"巴林右旗","poiRegion":"内蒙古自治区/赤峰市/巴林右旗"},{"poiId":"B0FFH4VOKS","poiLocation":"118.672525,43.529988","poiLng":"118.672525","poiLat":"43.529988","poiName":"白音社区","poiType":"商务住宅;住宅区;住宅小区","poiAddress":"北市街与罕山路交叉口西北50米","poiBounds":"null","poiPcode":"150000","poiPname":"内蒙古自治区","poiCitycode":"0476","poiCityname":"赤峰市","poiAdcode":"150423","poiAdname":"巴林右旗","poiRegion":"内蒙古自治区/赤峰市/巴林右旗"},{"poiId":"B0FFHMZG0E","poiLocation":"118.659593,43.526825","poiLng":"118.659593","poiLat":"43.526825","poiName":"王府家园","poiType":"商务住宅;住宅区;住宅小区","poiAddress":"查干沐沦街北200米","poiBounds":"null","poiPcode":"150000","poiPname":"内蒙古自治区","poiCitycode":"0476","poiCityname":"赤峰市","poiAdcode":"150423","poiAdname":"巴林右旗","poiRegion":"内蒙古自治区/赤峰市/巴林右旗"},{"poiId":"B0FFI0TI66","poiLocation":"118.680470,43.533574","poiLng":"118.680470","poiLat":"43.533574","poiName":"百合园小区","poiType":"商务住宅;住宅区;住宅小区","poiAddress":"朝阳街与荟福路交叉口西150米","poiBounds":"[[118.679472,43.53395],[118.679681,43.533359],[118.681529,43.533662],[118.68146,43.533851],[118.681127,43.534128],[118.68077,43.534419],[118.68029,43.534332],[118.680239,43.534475],[118.679429,43.534339],[118.679582,43.533983],[118.679472,43.53395]]","poiPcode":"150000","poiPname":"内蒙古自治区","poiCitycode":"0476","poiCityname":"赤峰市","poiAdcode":"150423","poiAdname":"巴林右旗","poiRegion":"内蒙古自治区/赤峰市/巴林右旗"},{"poiId":"B0FFHWN4IK","poiLocation":"118.688333,43.530932","poiLng":"118.688333","poiLat":"43.530932","poiName":"祥云小区1期","poiType":"商务住宅;住宅区;住宅小区","poiAddress":"","poiBounds":"[[118.687732,43.531244],[118.687981,43.53047],[118.688928,43.530618],[118.68869,43.531394],[118.687732,43.531244]]","poiPcode":"150000","poiPname":"内蒙古自治区","poiCitycode":"0476","poiCityname":"赤峰市","poiAdcode":"150423","poiAdname":"巴林右旗","poiRegion":"内蒙古自治区/赤峰市/巴林右旗"},{"poiId":"B0FFJ037UN","poiLocation":"118.681495,43.529030","poiLng":"118.681495","poiLat":"43.529030","poiName":"阳光家园","poiType":"商务住宅;住宅区;住宅小区","poiAddress":"查干沐沦街24-9号附近","poiBounds":"null","poiPcode":"150000","poiPname":"内蒙古自治区","poiCitycode":"0476","poiCityname":"赤峰市","poiAdcode":"150423","poiAdname":"巴林右旗","poiRegion":"内蒙古自治区/赤峰市/巴林右旗"},{"poiId":"B0FFHCQ6OZ","poiLocation":"118.675934,43.535359","poiLng":"118.675934","poiLat":"43.535359","poiName":"正安小区","poiType":"商务住宅;住宅区;住宅小区","poiAddress":"索博力嘎街","poiBounds":"[[118.674916,43.536143],[118.675801,43.536277],[118.675819,43.536274],[118.67586,43.536105],[118.675994,43.5357],[118.676391,43.535772],[118.676422,43.535694],[118.676641,43.53573],[118.676839,43.535137],[118.675292,43.534866],[118.674916,43.536143]]","poiPcode":"150000","poiPname":"内蒙古自治区","poiCitycode":"0476","poiCityname":"赤峰市","poiAdcode":"150423","poiAdname":"巴林右旗","poiRegion":"内蒙古自治区/赤峰市/巴林右旗"},{"poiId":"B01DC1592G","poiLocation":"118.641943,43.518912","poiLng":"118.641943","poiLat":"43.518912","poiName":"试验小区","poiType":"商务住宅;住宅区;住宅小区","poiAddress":"大板镇铁路","poiBounds":"null","poiPcode":"150000","poiPname":"内蒙古自治区","poiCitycode":"0476","poiCityname":"赤峰市","poiAdcode":"150423","poiAdname":"巴林右旗","poiRegion":"内蒙古自治区/赤峰市/巴林右旗"},{"poiId":"B0FFKWBM6H","poiLocation":"118.679927,43.537514","poiLng":"118.679927","poiLat":"43.537514","poiName":"维利丝公馆","poiType":"商务住宅;住宅区;住宅小区","poiAddress":"","poiBounds":"null","poiPcode":"150000","poiPname":"内蒙古自治区","poiCitycode":"0476","poiCityname":"赤峰市","poiAdcode":"150423","poiAdname":"巴林右旗","poiRegion":"内蒙古自治区/赤峰市/巴林右旗"},{"poiId":"B01DC0JMK6","poiLocation":"118.673998,43.534962","poiLng":"118.673998","poiLat":"43.534962","poiName":"珠峰骏景","poiType":"商务住宅;住宅区;住宅小区","poiAddress":"大板镇巴林路","poiBounds":"[[118.675592,43.53448],[118.673329,43.534105],[118.673204,43.534228],[118.673065,43.53446],[118.672634,43.535326],[118.672586,43.535505],[118.672801,43.535816],[118.673624,43.535949],[118.673729,43.53563],[118.673691,43.535478],[118.673782,43.535381],[118.673933,43.535389],[118.675035,43.535596],[118.675264,43.534817],[118.675671,43.534899],[118.67582,43.534473],[118.675592,43.53448]]","poiPcode":"150000","poiPname":"内蒙古自治区","poiCitycode":"0476","poiCityname":"赤峰市","poiAdcode":"150423","poiAdname":"巴林右旗","poiRegion":"内蒙古自治区/赤峰市/巴林右旗"},{"poiId":"B01DC0JCHW","poiLocation":"118.656339,43.528117","poiLng":"118.656339","poiLat":"43.528117","poiName":"百吉乐小区","poiType":"商务住宅;住宅区;住宅小区","poiAddress":"内巴林右旗大板镇索博日嘎街百吉乐小区","poiBounds":"[[118.654574,43.528785],[118.654729,43.528399],[118.654745,43.528291],[118.654759,43.528155],[118.655974,43.527815],[118.656078,43.528024],[118.656637,43.527872],[118.65654,43.527667],[118.657378,43.527415],[118.657803,43.527295],[118.657909,43.527504],[118.657798,43.527736],[118.65768,43.52795],[118.657505,43.528258],[118.657454,43.528345],[118.654574,43.528785]]","poiPcode":"150000","poiPname":"内蒙古自治区","poiCitycode":"0476","poiCityname":"赤峰市","poiAdcode":"150423","poiAdname":"巴林右旗","poiRegion":"内蒙古自治区/赤峰市/巴林右旗"},{"poiId":"B01DC159HE","poiLocation":"118.674047,43.530886","poiLng":"118.674047","poiLat":"43.530886","poiName":"天赐家园(北市街)","poiType":"商务住宅;住宅区;住宅小区","poiAddress":"北市街","poiBounds":"[[118.673326,43.530141],[118.673247,43.530158],[118.672861,43.531366],[118.672914,43.531379],[118.672887,43.531513],[118.674615,43.53182],[118.674593,43.531912],[118.674744,43.531935],[118.675224,43.530261],[118.67521,43.530222],[118.673376,43.529936],[118.673326,43.530141]]","poiPcode":"150000","poiPname":"内蒙古自治区","poiCitycode":"0476","poiCityname":"赤峰市","poiAdcode":"150423","poiAdname":"巴林右旗","poiRegion":"内蒙古自治区/赤峰市/巴林右旗"},{"poiId":"B01DC0I3QB","poiLocation":"118.680559,43.532081","poiLng":"118.680559","poiLat":"43.532081","poiName":"幸福家园(北市街)","poiType":"商务住宅;住宅区;住宅小区","poiAddress":"北市街中段北侧","poiBounds":"[[118.679682,43.531291],[118.679891,43.531326],[118.679945,43.531198],[118.681846,43.531505],[118.681361,43.533006],[118.679256,43.532619],[118.679682,43.531291]]","poiPcode":"150000","poiPname":"内蒙古自治区","poiCitycode":"0476","poiCityname":"赤峰市","poiAdcode":"150423","poiAdname":"巴林右旗","poiRegion":"内蒙古自治区/赤峰市/巴林右旗"},{"poiId":"B0FFFGZXDB","poiLocation":"118.679138,43.539712","poiLng":"118.679138","poiLat":"43.539712","poiName":"和谐家园(巴林右旗交通运输管理所北)","poiType":"商务住宅;住宅区;住宅小区","poiAddress":"242县道东200米","poiBounds":"[[118.678918,43.540563],[118.678065,43.540446],[118.678795,43.538556],[118.679358,43.538684],[118.67931,43.539163],[118.680144,43.539302],[118.680249,43.539906],[118.67998,43.540049],[118.679621,43.540481],[118.679251,43.540458],[118.679085,43.540485],[118.678918,43.540563]]","poiPcode":"150000","poiPname":"内蒙古自治区","poiCitycode":"0476","poiCityname":"赤峰市","poiAdcode":"150423","poiAdname":"巴林右旗","poiRegion":"内蒙古自治区/赤峰市/巴林右旗"},{"poiId":"B01DC0I3VE","poiLocation":"118.680406,43.520325","poiLng":"118.680406","poiLat":"43.520325","poiName":"庆州花园","poiType":"商务住宅;住宅区;住宅小区","poiAddress":"健康街","poiBounds":"[[118.678862,43.520544],[118.681171,43.520921],[118.681197,43.520909],[118.681226,43.520884],[118.681386,43.520357],[118.681595,43.519694],[118.680858,43.519577],[118.680648,43.520229],[118.680628,43.520233],[118.680184,43.520162],[118.680176,43.520178],[118.68016,43.520181],[118.679027,43.520008],[118.678862,43.520544]]","poiPcode":"150000","poiPname":"内蒙古自治区","poiCitycode":"0476","poiCityname":"赤峰市","poiAdcode":"150423","poiAdname":"巴林右旗","poiRegion":"内蒙古自治区/赤峰市/巴林右旗"},{"poiId":"B01DC0JAUI","poiLocation":"118.680541,43.533063","poiLng":"118.680541","poiLat":"43.533063","poiName":"民政家属院","poiType":"商务住宅;住宅区;住宅小区","poiAddress":"乌丹镇新城","poiBounds":"null","poiPcode":"150000","poiPname":"内蒙古自治区","poiCitycode":"0476","poiCityname":"赤峰市","poiAdcode":"150423","poiAdname":"巴林右旗","poiRegion":"内蒙古自治区/赤峰市/巴林右旗"},{"poiId":"B01DC0I3GD","poiLocation":"118.638481,43.522151","poiLng":"118.638481","poiLat":"43.522151","poiName":"大板单身公寓","poiType":"商务住宅;住宅区;住宅小区","poiAddress":"大板机务段","poiBounds":"null","poiPcode":"150000","poiPname":"内蒙古自治区","poiCitycode":"0476","poiCityname":"赤峰市","poiAdcode":"150423","poiAdname":"巴林右旗","poiRegion":"内蒙古自治区/赤峰市/巴林右旗"},{"poiId":"B01DC0I3IV","poiLocation":"118.680906,43.533129","poiLng":"118.680906","poiLat":"43.533129","poiName":"汇福家园","poiType":"商务住宅;住宅区;住宅小区","poiAddress":"大板镇汇福路","poiBounds":"null","poiPcode":"150000","poiPname":"内蒙古自治区","poiCitycode":"0476","poiCityname":"赤峰市","poiAdcode":"150423","poiAdname":"巴林右旗","poiRegion":"内蒙古自治区/赤峰市/巴林右旗"},{"poiId":"B0FFGZ41DD","poiLocation":"118.675524,43.528757","poiLng":"118.675524","poiLat":"43.528757","poiName":"瑛达石苑","poiType":"商务住宅;住宅区;住宅小区","poiAddress":"大板镇巴林石城19号厅","poiBounds":"null","poiPcode":"150000","poiPname":"内蒙古自治区","poiCitycode":"0476","poiCityname":"赤峰市","poiAdcode":"150423","poiAdname":"巴林右旗","poiRegion":"内蒙古自治区/赤峰市/巴林右旗"},{"poiId":"B01DC0JGS6","poiLocation":"118.67487,43.526447","poiLng":"118.67487","poiLat":"43.526447","poiName":"达尔罕小区","poiType":"商务住宅;住宅区;住宅小区","poiAddress":"大板街与罕山路交叉口东北100米","poiBounds":"[[118.674521,43.526083],[118.675245,43.526213],[118.675204,43.526372],[118.675397,43.52642],[118.675289,43.526807],[118.674327,43.526604],[118.674521,43.526083]]","poiPcode":"150000","poiPname":"内蒙古自治区","poiCitycode":"0476","poiCityname":"赤峰市","poiAdcode":"150423","poiAdname":"巴林右旗","poiRegion":"内蒙古自治区/赤峰市/巴林右旗"},{"poiId":"B0FFG0EA9B","poiLocation":"118.653928,43.530309","poiLng":"118.653928","poiLat":"43.530309","poiName":"天旭花园","poiType":"商务住宅;住宅区;住宅小区","poiAddress":"G303(索博日嘎街)","poiBounds":"[[118.654275,43.531415],[118.652269,43.531069],[118.652918,43.530062],[118.653256,43.529772],[118.653953,43.529187],[118.655541,43.529469],[118.654755,43.530684],[118.654275,43.531415]]","poiPcode":"150000","poiPname":"内蒙古自治区","poiCitycode":"0476","poiCityname":"赤峰市","poiAdcode":"150423","poiAdname":"巴林右旗","poiRegion":"内蒙古自治区/赤峰市/巴林右旗"},{"poiId":"B01DC0I3OH","poiLocation":"118.637235,43.521428","poiLng":"118.637235","poiLat":"43.521428","poiName":"正镶白旗机务段大板地区乘务员二公寓","poiType":"商务住宅;住宅区;住宅小区","poiAddress":"站前街19-15号附近","poiBounds":"[[118.637392,43.521902],[118.636615,43.521388],[118.636599,43.521347],[118.636599,43.52131],[118.637063,43.520947],[118.637921,43.521519],[118.637392,43.521902]]","poiPcode":"150000","poiPname":"内蒙古自治区","poiCitycode":"0476","poiCityname":"赤峰市","poiAdcode":"150423","poiAdname":"巴林右旗","poiRegion":"内蒙古自治区/赤峰市/巴林右旗"}]